监测点编码,监测点名称,城市,经度,纬度,date,PM2_5,row_index,col_index,proj_x,proj_y,dem,w10,d10,t2m,sp,tp,blh,e,r,u10,v10,aod_sat,ndvi,id
1907A,南充炼油厂,南充,106.1031,30.8217,20170601,47.4255618,3649,5224,986003.8426,153573.1651,300,0.888030589,308.4597168,290.8873291,97559.91406,0.001398045,150.5676727,-1.21491e-05,75.05997467,-0.695405066,-0.552277148,0.876248121,2900,712
1419A,南坪,重庆,106.54,29.5186,20170601,41.60526316,3857,5294,1042786.306,4137.579975,202,0.68494314,311.4235229,291.7192078,97549.84375,0.00142687,130.9321442,-1.09546e-05,73.22263336,-0.513628006,-0.453137249,0.958242118,1737,353
2307A,监测大楼,六安,116.508,31.7371,20170601,44.06005587,3502,6889,1875096.51,413131.9583,64,0.899863958,248.1708069,288.4790649,101085.0625,0.001928179,177.0330048,-1.21031e-05,68.50600433,-0.835328877,0.334635347,0.79020977,2903,963
1814A,豫西宾馆,洛阳,112.4664,34.6869,20170601,59.93661972,3030,6243,1464253.805,691868.0353,147,0.47071591,212.0818176,287.711731,99078.67188,0.001022207,168.2483826,-1.03006e-05,59.38035965,-0.250004649,0.398837239,0.789968073,2332,633
1901A,东山公园,德阳,104.4219,31.1208,20170601,42.56741573,3601,4955,833789.715,173481.7588,507,0.543905258,176.7321777,290.3390808,94986.32813,0.001026293,150.148819,-1.05076e-05,66.12191772,0.031054454,-0.543018043,0.766114652,3740,706
2402A,广电局,漯河,114.0322,33.5653,20170601,55.8189415,3210,6493,1619942.621,583682.9574,63,0.603703201,230.3164673,288.1911316,100989.7109,0.001529784,202.7234955,-1.26393e-05,62.502491,-0.464589745,0.385504782,0.872941017,2401,1049
1170A,城中,南通,120.87,32.02,20170601,34.07799443,3457,7587,2238511.318,537323.846,7,1.116045117,262.2901611,288.3232422,101695.7031,0.002089722,313.9808044,-2.86828e-05,72.97457886,-1.105949879,0.149771631,0.694758892,2304,151
2644A,汉滨区检察院,安康,109.0072,32.6975,20170601,42.6755618,3348,5689,1210469.108,408518.0412,276,0.63067764,299.1253357,289.3021851,96461.11719,0.001694863,148.0795441,-5.47218e-06,68.78479767,-0.550951779,-0.306930691,0.625590801,3428,1261
1609A,新区,葫芦岛,120.8478,40.715,20170601,32.58615819,2066,7584,1962917.892,1553225.327,24,0.922271192,60.66659927,282.9402771,100838.9297,0.000596107,400.8572083,-6.53703e-05,54.12990952,0.804007053,0.451837182,0.6214481,3128,457
1213A,楚州区监测站,淮安,119.135,33.5039,20170601,45.50277008,3219,7310,2048245.053,671745.646,7,1.03248632,255.4097748,287.4474487,101651.3594,0.0017421,242.3017426,-1.82577e-05,66.64586639,-0.999180734,0.260126501,0.747934103,3144,182
1242A,瓯海,温州,120.634,28.0089,20170601,34.10277778,4099,7549,2341518.945,71385.3921,22,0.551493347,327.9435425,290.423584,100212.3281,0.002784423,256.3656006,-3.21053e-05,81.16259003,-0.292743325,-0.467382342,0.546185672,2428,206
2261A,新建　,七台河,130.8625,45.8194,20170601,28.55477528,1249,9186,2471285.721,2374560.904,185,1.229182959,71.31165314,274.5661011,98913.14844,0.000944573,281.9474792,-6.10919e-06,70.0810318,1.164360404,0.39389804,0.375061423,3027,922
2449A,咸安区政府,咸宁,114.2894,29.8539,20170601,36.90972222,3803,6534,1728092.585,152809.1,48,0.823998511,279.9075928,290.0158997,100697.7813,0.002568891,178.2748413,-1.78984e-05,72.78683472,-0.811717153,-0.141735032,0.799533367,4608,1085
2453A,市立交桥水厂,随州,113.3983,31.7308,20170601,48.91364903,3503,6392,1607578.223,357279.6377,87,0.765293658,274.4717712,288.379364,100175.9844,0.001838981,210.3170013,-1.43328e-05,71.00125122,-0.762966931,-0.059631199,0.804376483,3482,1089
2354A,第二水厂,新余,114.9289,27.8328,20170601,48.87916667,4127,6637,1832791.062,-70053.83303,51,0.799427629,306.5995789,291.680603,100770.7266,0.002986033,228.5323486,-1.52127e-05,71.63578796,-0.641829133,-0.476592034,0.669696867,2544,1004
2673A,共和县恰卜恰镇,海南州,100.6188,36.2866,20170601,22.37640449,2774,4347,462219.4506,767961.5441,2871,0.637171507,294.7624512,278.3710022,71072.88281,0.000794096,297.9203491,-2.05624e-05,46.41195679,-0.578600705,-0.266849637,0.152113423,1983,1287
1010A,昌平镇,北京,116.23,40.1952,20170601,48.23876404,2149,6845,1631926.783,1407069.146,57,0.647320211,147.3508606,284.052002,100057.2891,0.001045819,141.0935364,-6.08105e-06,51.74059296,0.349266022,-0.545010746,0.785904706,3249,9
2503A,市农科院,钦州,108.6553,21.9508,20170601,31.75706215,5068,5633,1355284.16,-847078.7388,12,0.299408495,304.2290039,294.9709778,100761.1172,0.002850934,280.3829346,-2.62083e-05,77.93145752,-0.247560546,-0.168401971,0.508985996,3794,1136
2915A,职业中学,巴中,106.7619444,31.85805556,20170601,21.37042254,3483,5330,1029462.664,283241.2533,384,0.882093132,326.7931213,289.4392395,95241.83594,0.001962412,118.4081955,-8.05066e-06,72.68408966,-0.483145982,-0.738009632,0.695916176,3499,1357
2262A,葫头沟,七台河,130.9467,45.8309,20170601,29.78267045,1247,9199,2476322.779,2377997.411,294,1.201147079,74.0170517,274.6150818,98922.9375,0.000931429,283.6371765,-6.17343e-06,70.24242401,1.154702544,0.33078143,0.365109205,4099,923
1737A,南机场,临汾,111.4917,36.0417,20170601,72.86685552,2813,6087,1355986.122,839151.8689,450,0.449992746,81.76942444,285.7096863,94505.49219,0.000878388,134.7795715,-6.38288e-06,53.3822403,0.445355088,0.06443841,0.559331894,3125,560
1949A,惠农南大街,石嘴山,106.7704,39.2282,20170601,42.43454039,2304,5331,923769.3521,1167549.166,1094,0.267566115,109.431015,284.7584229,88080.60938,0.000295676,343.7106323,-7.19597e-06,34.00588608,0.252331287,-0.088997483,0.357204139,1771,752
1978A,莱州外经委,莱州,119.959,37.18,20170601,36.77761628,2631,7441,2005083.073,1119093.992,58,1.18651855,221.6113129,285.6207581,101059.1016,0.000754719,331.9237366,-2.90607e-05,61.2922821,-0.787916958,0.887137592,0.678234279,2306,778
1470A,阎良区,西安,109.2,34.6575,20170601,67.91428571,3035,5720,1193064.872,644194.9663,385,0.998359978,329.9326172,288.1097107,96786.19531,0.000930122,133.8486176,-8.47837e-06,57.2674942,-0.500263512,-0.863978624,0.616701365,3677,398
1328A,武昌紫阳,武汉,114.3006,30.5494,20170601,44.58333333,3692,6536,1712938.32,234138.7098,38,1.120484591,301.2478027,290.1384888,101301.0625,0.002528618,213.7231903,-3.53923e-05,68.71790314,-0.957974017,-0.581181109,0.802339196,1716,275
2336A,龙岩市监测站,龙岩,117.0216,25.1035,20170601,24.6232493,4564,6971,2093287.343,-340977.7941,338,0.398720503,260.2210083,291.0870361,94684.64844,0.002532167,110.1729736,-7.23627e-06,78.83322144,-0.392924398,0.067738131,0.448465586,3799,986
2303A,开发区,阜阳,115.8556,32.8603,20170601,54.9719888,3322,6785,1790748.555,532383.4222,29,0.887989879,254.5608826,288.2521973,101337.125,0.002175472,197.2092438,-1.31597e-05,64.86552429,-0.855936646,0.236428618,0.839790285,2629,959
1308A,李沧区子站,青岛,120.3905,36.1851,20170601,42.19219653,2790,7510,2069799.107,1011370.883,28,0.7155146,189.3818665,285.9462585,101179.6328,0.000868624,359.5069885,-5.9206e-05,66.18849182,-0.116635114,0.7059443,0.650496602,2283,260
1036A,供销社,唐山,118.1662,39.6308,20170601,47.58448753,2239,7155,1794193.98,1373720.072,30,0.678802371,193.2322235,284.0889587,101426.6172,0.000736898,184.281189,-8.81654e-06,51.74806595,-0.155372381,0.660781443,0.808539331,2423,26
1613A,万安,泉州,118.6663,24.9424,20170601,26.91374269,4589,7235,2251176.99,-322884.4372,5,1.672789454,322.2612305,293.5256653,100951.1875,0.002228093,415.8861389,-2.98341e-05,79.07250977,-1.023948312,-1.322782874,0.38532877,2142,461
1124A,净月潭,长春,125.454,43.7878,20170601,22.37073864,1574,8321,2187664.251,2011264.353,242,1.296965241,44.60767365,277.5579529,98681.42969,0.001147033,263.9197083,-1.01526e-05,60.41678619,0.910770535,0.92337203,0.468828708,3106,106
2447A,森林公园,咸宁,114.3036,29.8181,20170601,41.71910112,3809,6537,1730178.405,148888.1806,65,0.790231884,275.6500854,289.8298645,100272.7188,0.0026672,174.8209839,-1.65275e-05,73.55194855,-0.786396563,-0.077761799,0.781116128,4021,1083
1875A,古亭山,柳州,109.4839,24.3158,20170601,34.85854342,4690,5765,1396816.058,-565057.214,93,0.481155843,341.8652954,293.6621704,99716.19531,0.00354164,265.3618164,-2.06137e-05,75.41307831,-0.149798959,-0.457243055,0.570562541,2672,685
2835A,四十中小,攀枝花,101.7227,26.567,20170601,25.5362117,4329,4524,632213.0532,-383772.92,1266,0.261160403,231.4132843,292.8708801,85006.25781,0.002208773,179.5517731,-4.19465e-06,60.23318863,-0.204135671,0.162890717,0.300056636,3692,1325
1158A,奥体中心,南京,118.737,32.0092,20170601,46.43521127,3459,7246,2058024.869,489435.964,8,1.132401824,264.6637268,288.2364197,101423.7813,0.002364973,240.427475,-2.06769e-05,68.27670288,-1.127489448,0.105363622,0.783305407,2719,139
1324A,岗李水库,郑州,113.6113,34.9162,20170601,59.82294618,2993,6426,1553909.984,736654.4282,93,0.781253636,226.5361328,288.2816772,100644.0781,0.000916769,202.9169159,-1.51515e-05,56.23620605,-0.567027569,0.537435532,0.823637009,4169,271
1321A,四十七中,郑州,113.734,34.719,20170601,62.79378531,3025,6445,1568539.824,715237.4325,99,0.602926195,204.8696747,288.1617737,100291.4531,0.001057655,222.3699799,-1.23789e-05,58.76182556,-0.253556967,0.547018111,0.840416908,2582,268
1847A,南湖风景区,岳阳,113.1094,29.3578,20170601,52.86376404,3883,6345,1634409.087,74799.81927,36,1.037202001,311.8988647,290.5915833,101126.9531,0.00242957,255.5616302,-3.24913e-05,71.20270538,-0.772061884,-0.692609847,0.81054759,2291,663
1713A,市监测站,云浮,112.0369,22.9394,20170601,34.66527778,4910,6174,1668235.942,-682578.3419,84,0.861535609,258.6884766,293.9867859,98492.67969,0.003142678,207.4624939,-1.14652e-05,78.7071228,-0.844793677,0.169018582,0.54842627,3794,541
1508A,板塘,湘潭,112.9433,27.8614,20170601,42.59331476,4122,6319,1651718.931,-101952.5419,60,0.917779863,354.5755005,291.0956726,100709.7031,0.002673088,239.433075,-1.76781e-05,72.40300751,-0.086843744,-0.913661897,0.7768085,1855,420
2505A,德智高中,贵港,109.5681,23.1478,20170601,38.18571429,4876,5779,1424864.633,-697681.3057,113,0.446328253,293.3067322,294.0881348,99581.52344,0.003272329,230.177948,-1.65834e-05,77.88550568,-0.409918129,-0.176567376,0.545196533,5219,1137
1592A,巴音孟克林场办事处,鄂尔多斯,109.9486,39.8261,20170601,28.75915493,2208,5840,1160434.573,1273489.105,1465,1.359291077,64.52292633,280.5108032,85925.45313,0.000811057,269.8643188,-1.06983e-05,45.31322479,1.227090716,0.584739745,0.395643771,2196,441
2490A,涟钢,娄底,111.9561,27.7569,20170601,35.39577465,4139,6161,1563890.853,-130231.2769,128,0.783385158,337.6931763,290.3634338,99599.28125,0.00238625,225.6069031,-1.17009e-05,74.90756226,-0.297405303,-0.724736094,0.778168559,3526,1125
1444A,中院村,贵阳,106.6948,26.5155,20170601,35.31601124,4338,5319,1098775.891,-345983.121,1093,1.261153102,236.0878448,287.561676,88480.24219,0.002084561,338.7220154,-1.11839e-05,83.0590744,-1.046602964,0.70365417,0.596750736,3109,373
1329A,青山钢花,武汉,114.4272,30.6103,20170601,57.25492958,3682,6556,1722603.115,243464.6664,31,1.047051668,301.5730896,290.0148926,101304.9844,0.002581318,206.7971802,-3.31349e-05,69.16859436,-0.892094076,-0.54816556,0.802711964,3155,276
2224A,监测站,四平,124.3419,43.1747,20170601,44.17746479,1672,8143,2132306.475,1915167.6,163,1.25522995,24.29963684,278.6562195,99670.41406,0.001122397,290.611969,-9.13661e-06,55.59843826,0.516523421,1.144030452,0.488097876,2547,885
1908A,高坪区监测站,南充,106.1064,30.7856,20170601,49.45391061,3654,5225,986780.9649,149330.9605,285,0.896087289,308.9842834,290.8911133,97568.39063,0.00139715,150.3124695,-1.19645e-05,75.09119415,-0.696582735,-0.563688695,0.880144715,2655,713
1911A,丁字口,遵义,106.9222,27.6869,20170601,30.9275766,4150,5356,1103370.845,-206732.1068,869,1.204445839,270.4447021,288.2242737,90735.42188,0.001904941,244.5178833,-1.07473e-05,77.88352966,-1.204409957,-0.009291916,0.71316433,2938,716
1159A,仙林大学城,南京,118.907,32.105,20170601,37.08189655,3443,7273,2069710.824,504137.4008,25,1.129577279,264.0560608,288.1342163,101281.9219,0.002416553,245.4673462,-1.9872e-05,68.91624451,-1.123499274,0.117022552,0.779545009,3755,140
1447A,太慈桥,贵阳,106.6867,26.5495,20170601,26.4756447,4332,5318,1097545.325,-342114.4817,1096,1.251607895,235.7802124,287.4953918,88355.92188,0.002077359,337.0706482,-1.11982e-05,83.03549957,-1.034917235,0.703895271,0.599681735,2841,376
2700A,市环境监测站,喀什地区,75.9435,39.4365,20170601,133.8005618,2270,399,-1484909.609,1281986.561,1290,0.203933403,64.68322754,288.2397766,86647.0625,0.000276627,371.1020508,-1.81205e-05,33.80693054,0.184344232,0.087212622,0.251003951,3226,1313
2074A,漳州三中,漳州,117.6569,24.5157,20170601,27.33613445,4658,7073,2168256.488,-393867.4781,14,0.621001422,248.913269,293.8982544,100310.4141,0.002129103,191.2363129,-1.00656e-05,77.4164505,-0.579409301,0.223444968,0.43692854,2568,825
2253A,林管局,伊春,128.9094,47.7317,20170601,18.82248521,943,8873,2262962.407,2547270.472,248,0.76622653,59.92066193,272.6238098,97123.69531,0.001088169,181.3152924,-3.41212e-06,74.44569397,0.663028598,0.384052247,0.313867033,4110,914
2707A,小东沟,阿勒泰地区,88.1214,47.9047,20170601,9.540785498,915,2347,-466422.3514,2190396.594,1013,1.389637232,347.1051941,275.0678711,87218.55469,0.000794801,144.9333344,-9.32686e-06,59.67956543,-0.310230374,-1.354565859,0.137945384,2472,1320
1275A,庐阳区,合肥,117.266,31.9438,20170601,52.0210084,3469,7011,1934510.403,451937.7037,33,1.028813601,257.9957886,288.6001587,101257.9688,0.002219917,239.5991516,-1.71932e-05,67.73134613,-1.006307244,0.214016482,0.78590548,3859,231
1771A,北湖公园,锦州,121.1303,41.1386,20170601,33.10893855,1998,7629,1970264.929,1608832.426,44,0.724091947,52.45780563,282.2090454,100763.1406,0.000662681,327.9137573,-2.38005e-05,52.1627388,0.574124098,0.441237658,0.599637628,2085,592
1857A,白鹤山,常德,111.7158,29.1456,20170601,34.8832853,3917,6123,1514159.428,27711.98488,72,1.092972755,319.6559448,290.374115,100744.2813,0.002004648,244.2007599,-2.21838e-05,70.55252075,-0.707624376,-0.832980871,0.823841989,6291,670
1110A,周水子,大连,121.565,38.95111111,20170601,28.5,2348,7698,2073528.812,1360414.358,27,0.202048704,113.3042221,284.4041138,101105.7891,0.000428921,504.8711853,-9.69823e-05,61.75147629,0.185569659,-0.079922333,0.641193926,2532,93
1629A,第二水厂,滨州,118.0018,37.3617,20170601,54.07541899,2602,7128,1845743.867,1102144.139,12,0.797798097,224.3066864,285.9794922,101616.7813,0.000803164,191.8181,-1.08153e-05,52.10063553,-0.557247877,0.570926011,0.790579975,2740,473
2538A,市监测站,乐山,103.757,29.5634,20170601,52.01133144,3850,4849,791606.1334,-16553.87505,380,0.87563926,115.0060654,291.2200928,96534.74219,0.001024524,134.3856659,-1.23178e-05,70.67913818,0.793581426,-0.370098114,0.897755027,4182,1170
2363A,地委,赣州,114.9367,25.8664,20170601,47.77146814,4441,6638,1880028.498,-296077.7442,109,0.469468415,170.721756,292.2148132,99394.53906,0.002014583,267.4163208,-1.70639e-05,75.71694946,0.07573273,-0.463319719,0.537528396,2323,1013
2232A,环保局,白山,126.4078,41.9419,20170601,32.37709497,1869,8473,2324880.745,1818278.223,500,0.647617877,37.19845963,275.3440247,94072.5,0.001318248,221.3408356,-6.56498e-06,75.49783325,0.391525477,0.515865028,0.460416764,2581,893
1235A,万里学院,宁波,121.56,29.8208,20170601,36.98472222,3809,7698,2366794.505,300549.4462,4,0.4400042,254.4442749,289.9533691,101425.6484,0.003185493,369.0124512,-3.28363e-05,78.97048187,-0.423882335,0.118014678,0.589393854,2690,201
2171A,锦纶小区,晋中,112.7549,37.7019,20170601,59.83055556,2548,6289,1422573.517,1055309.148,822,0.515580297,245.4406586,283.4151611,91511.89844,0.000796085,154.3292084,-6.42277e-06,51.69888687,-0.468929231,0.214309245,0.512913585,1784,838
1904A,耐火材料厂,德阳,104.3539,31.1108,20170601,63.7266289,3602,4945,827903.7342,171719.042,489,0.568953454,167.7808685,290.5610046,95322.22656,0.00102244,145.2479553,-1.01879e-05,66.41021729,0.12046773,-0.556053579,0.776457191,3625,709
1968A,胶州一中,胶州,120.014,36.253,20170601,33.08732394,2780,7450,2037707.765,1011454.822,21,0.618620932,187.4125977,285.3928223,101417.9297,0.000895404,245.4938202,-1.51989e-05,64.22150421,-0.079807974,0.613451302,0.676147103,3162,768
3038A,州图书馆,红河州,103.3758,23.3682,20170601,30.92655367,4841,4788,819057.8453,-743094.998,1303,1.201764345,201.7079315,289.4332275,85581.4375,0.002862381,193.5937347,-4.21486e-06,83.74964142,-0.444490492,1.116541862,0.360403746,3504,1395
1749A,太阳城,鞍山,123.011,41.0931,20170601,28.875,2005,7930,2109908.208,1642530.524,90,1.024908066,194.9835358,281.1362,100626.1094,0.001023153,271.911499,-8.1068e-06,52.71163177,-0.26497367,0.990063429,0.575857282,2169,571
1277A,包河区,合肥,117.302,31.7956,20170601,51.98022599,3493,7016,1941573.347,435374.7744,21,1.109904647,259.0768127,289.1032104,101484.3672,0.002264974,251.5123444,-2.29364e-05,67.68444061,-1.089787006,0.210363343,0.793789148,3851,233
1381A,紫马岭,中山,113.4075,22.5111,20170601,29.46927374,4978,6393,1810127.024,-706903.1147,13,0.829056203,252.4943237,295.2363892,100838.6016,0.002912565,293.5805359,-3.66533e-05,76.64382172,-0.790650904,0.249409929,0.524514079,3852,319
1459A,西藏大学,拉萨,91.1774,29.6541,20170601,13.734375,3835,2836,-345503.2937,-34365.34415,3676,0.362885445,193.4119568,278.766449,60340.83203,0.000903132,357.5426636,-5.2657e-06,38.23548126,-0.084169112,0.352989227,0.088719495,1673,387
2331A,茫荡山,南平,118.0966,26.6761,20170601,19.22050562,4312,7143,2150792.157,-138657.9951,1044,0.282099456,270.1705933,292.0853577,96602.27344,0.002443687,144.4280548,-1.11612e-05,72.29118347,-0.282098234,-0.000826824,0.431283653,6887,981
2162A,市环保局,晋城,112.8564,35.4883,20170601,59.66573816,2902,6305,1479102.825,792919.3951,710,0.467280239,258.1205139,284.2034912,92513.29688,0.001013652,170.318634,-6.13769e-06,59.82877731,-0.457268506,0.096209839,0.676228344,2363,829
1982A,文登市丝绸公司,文登,122.019,37.187,20170601,19.37711864,2630,7771,2166315.478,1163642.351,44,0.473622024,53.17795181,284.2929993,101128.4219,0.00092996,337.01474,-1.10024e-05,68.05549622,0.379127055,0.283867031,0.57832551,2930,782
1940A,体育馆,渭南,109.4636,34.493,20170601,70.88997214,3061,5762,1217962.807,627803.409,380,0.931024849,244.3529968,287.4116516,96219.53906,0.001135641,100.0737991,-7.95372e-06,61.3036232,-0.839284897,0.402998924,0.609041452,2922,744
1595A,奥林花园,鄂尔多斯,109.9734,39.7884,20170601,24.92339833,2214,5844,1163042.863,1269237.174,1436,1.301764965,67.7186203,280.4292603,85844.15625,0.000831661,270.5464478,-1.06163e-05,45.66374969,1.204548955,0.493613154,0.396506429,2173,444
1233A,云栖,杭州,120.088,30.1808,20170601,34.76264045,3751,7462,2227765.732,307453.82,59,0.777298689,309.0681458,289.5455627,100818.2031,0.002606487,227.9638367,-1.59928e-05,72.89274597,-0.603524923,-0.489847869,0.680938125,5614,200
3021A,濮水河管理处,濮阳,115.0061,35.76806,20170601,62.33002833,2857,6649,1647996.679,860332.1673,54,0.774536073,209.6607971,287.7931824,101045.1719,0.000786218,205.9085236,-1.07308e-05,54.85531616,-0.38327983,0.673054695,0.86507982,3673,1385
1883A,市委,宜宾,104.6225,28.76611,20170601,47.41504178,3978,4988,878842.8558,-103259.58,301,0.555002809,131.8848724,291.6523438,96722.92188,0.001210027,149.8258362,-1.32929e-05,72.04242706,0.413217962,-0.37051183,1.00313437,3274,691
2510A,市监测站,玉林,110.1675,22.6411,20170601,38.76056338,4958,5875,1492023.162,-746587.9599,80,0.804365754,270.216095,294.4644775,100256.4141,0.003211519,238.6332092,-1.23341e-05,81.04673767,-0.804360151,-0.00299628,0.538504303,2787,1142
1439A,马鞍山,贵阳,106.6856,26.6029,20170601,30.36070381,4324,5318,1096699.35,-335907.3823,1150,1.237574816,235.3930359,287.4142151,88227.30469,0.002067968,334.5128479,-1.10392e-05,82.99447632,-1.018587232,0.702902138,0.596409798,4079,368
1425A,空港,重庆,106.617,29.7125,20170601,36.10724234,3826,5307,1046997.288,27811.10468,414,0.735382378,311.0783997,291.7601013,97748.61719,0.001499428,127.174614,-1.02793e-05,73.61724091,-0.554372072,-0.483175725,0.937363207,2796,357
1243A,南浦,温州,120.677,27.9939,20170601,32.07605634,4101,7556,2345814.187,70701.43436,9,0.737793267,325.4155273,290.6038208,100385.7031,0.002689945,280.7914124,-4.05877e-05,80.28862762,-0.418832123,-0.607386708,0.539707124,2134,207
1960A,世纪学校,寿光,118.78,36.864,20170601,52.04333333,2682,7253,1921459.567,1058371.989,22,0.871823311,200.8208008,286.0860901,101342.6953,0.000815353,229.3359985,-1.30122e-05,55.5737381,-0.309877694,0.814893663,0.74447912,2853,763
2168A,区政府,朔州,112.4254,39.3179,20170601,46.64705882,2289,6236,1361760.843,1244150.952,1095,1.253083229,67.2808075,279.6309814,88407.94531,0.000999305,171.4592438,-3.72581e-06,53.97813034,1.155838251,0.48399955,0.428279877,1871,835
2353A,飞宇,新余,114.9831,27.8344,20170601,41.76601671,4127,6645,1837668.732,-68856.76044,54,0.832867503,308.3184204,291.6977234,100735.0938,0.002932675,233.7166138,-1.56101e-05,71.11712646,-0.653482735,-0.516360939,0.66236347,3129,1003
1130A,松北商大,哈尔滨,126.561,45.8167,20170601,27.96121884,1249,8498,2185976.788,2272291.929,117,1.197531819,51.73068619,275.9894714,100001.2734,0.000710105,209.7124176,-7.10396e-06,61.15815353,0.940172374,0.741726696,0.412337601,2548,112
1687A,茂石化七小,茂名,110.9294,21.6533,20170601,25.79741379,5116,5997,1584662.127,-846822.8131,25,1.499594092,257.2289429,295.6622925,100974.1484,0.003086019,263.2003784,-1.80007e-05,80.44173431,-1.462482691,0.331552088,0.464969575,3127,520
1478A,生物制品所,兰州,103.841,36.0725,20170601,48.85734463,2808,4863,729031.795,761638.4561,1537,1.236114621,248.9255981,282.8693237,82449.57813,0.000709841,234.7140503,-6.77053e-06,49.16866302,-1.153420448,0.444522858,0.318420291,1619,406
1964A,开发区子站,即墨,120.47,36.39,20170601,28.07303371,2758,7523,2069773.36,1037035.314,27,0.565185785,191.195816,285.1802063,101237.9688,0.000992653,296.0322571,-3.24286e-05,65.80377197,-0.109734781,0.554430544,0.64891392,2249,766
1955A,乌尔禾区商贸楼,克拉玛依,85.6931,46.0872,20170601,28.31534091,1206,1959,-651717.0144,1982218.541,303,1.305851579,108.1486816,285.6183777,97062.57813,0.000109129,620.6276855,-1.02429e-05,38.93966293,1.240910053,-0.40668264,0.212577194,2609,758
1972A,2号,平度,119.976,36.799,20170601,34.60057471,2692,7444,2018041.431,1074706.747,63,0.709809124,226.9320679,284.9526062,101131.1172,0.000885525,249.1580505,-7.83441e-06,63.59031296,-0.518535554,0.484716296,0.659083128,2856,772
2390A,开发区,新乡,113.884,35.272,20170601,61.12534819,2937,6469,1568193.237,783170.9294,72,0.548376799,298.8278198,287.9819946,100276.1484,0.000853742,179.7498779,-9.34065e-06,54.4716301,-0.48043412,-0.264386415,0.80810529,2129,1039
2871A,万里国际学校,宁波,121.6147222,29.90166667,20170601,33.82777778,3796,7706,2368980.749,311125.3428,4,0.6134184,255.7086487,290.1271057,101605.7891,0.003091791,403.7295227,-4.43322e-05,78.02191162,-0.594429076,0.151447132,0.572559774,2381,1338
2312A,三国揽胜宫,亳州,115.7831,33.8561,20170601,51.48280802,3163,6773,1759494.753,648060.0469,39,0.876777887,241.3581696,287.943573,101230.2266,0.001687986,196.4363403,-1.10325e-05,62.56277847,-0.769476116,0.420292735,0.838687599,2195,968
2703A,市环保局,伊犁哈萨克州,81.2815,43.9404,20170601,48.26760563,1550,1253,-995572.9683,1757814.371,639,0.493626207,352.4929199,285.6677551,92803.59375,0.000393966,295.7780762,-1.23629e-05,45.99690247,-0.064535066,-0.489389479,0.221095145,2840,1316
1919A,中华小区,咸阳,108.6761,34.3181,20170601,64.58591549,3089,5636,1155014.199,597429.3075,388,0.427577376,159.1076965,286.5556335,94540.39844,0.001147953,93.1432724,-6.72714e-06,63.51910782,0.152512148,-0.399452686,0.620392442,2592,723
2872A,南湖区残联,嘉兴,120.7844444,30.7525,20170601,40.42222222,3660,7573,2270546.394,389189.9502,6,1.206874251,274.6819763,289.3324585,101578.8203,0.002154832,300.0643616,-2.23472e-05,73.01953125,-1.202851892,-0.09845262,0.70030129,3384,1339
1270A,明珠广场,合肥,117.196,31.7848,20170601,48.77949438,3495,6999,1932792.325,432026.4364,34,1.024951816,256.0180054,288.880127,101334.3672,0.002223135,239.2498779,-1.56752e-05,67.72418213,-0.994574487,0.247684643,0.7954638,3327,226
1032A,西南高教,石家庄,114.4586111,38.00583333,20170601,64.80532213,2499,6561,1550102.798,1117361.256,73,0.784852922,45.74318695,285.8088684,100056.0938,0.001023395,127.3562927,-8.78532e-06,52.42238235,0.562113583,0.547743022,0.810598135,2383,22
1432A,十里店,成都,104.176,30.6872,20170601,55.30532213,3670,4916,816913.8933,119948.8354,497,0.942406774,164.7892914,290.7298889,96039.65625,0.001094053,167.4013672,-1.2244e-05,69.15605927,0.247335628,-0.909370959,0.822873175,2798,363
3005A,鼓楼区政府,徐州,117.1814,34.29,20170601,63.42997199,3094,6997,1864226.975,724850.9935,38,1.080987811,239.3434296,287.5539856,101279.6797,0.001601907,208.4224854,-1.37982e-05,62.61753464,-0.92989105,0.551214397,0.81409514,2935,1375
1952A,南林小区,克拉玛依,84.8897,45.5828,20170601,21.96296296,1287,1830,-714135.383,1926271.785,354,1.908054829,134.3760223,285.3796997,96513.34375,0.000269908,567.0460815,-9.76535e-06,42.00608826,1.36390388,-1.334331036,0.240162075,2059,755
1839A,四零三,宜昌,111.3009,30.7157,20170601,54.33893557,3666,6056,1446117.482,205402.1266,104,0.309547871,345.421875,289.5180054,98509.82031,0.002161921,120.7241745,-8.00594e-06,73.29129028,-0.077938743,-0.299575418,0.773427427,2490,655
2561A,莲花山,资阳,104.6617,30.1366,20170601,33.4432133,3758,4994,866452.3266,58872.72104,377,0.800412118,298.3917847,291.2840271,96588.45313,0.000963947,193.3557129,-1.32982e-05,70.43460846,-0.70415926,-0.380551368,0.944391012,4313,1188
2239A,朝阳川镇医院,延边州,129.3675,42.8775,20170601,16.46751412,1720,8947,2496128.983,1999050.127,218,1.134649038,87.19962311,276.6505737,98006.32031,0.000797148,304.6461487,-3.4917e-06,67.77149963,1.133291602,0.055485651,0.407669276,3687,900
1322A,市监测站,郑州,113.5991,34.7496,20170601,64.34520124,3020,6424,1556686.197,716717.1943,125,0.655335128,206.991394,288.0125427,100049.8828,0.001021759,213.3342743,-1.21599e-05,59.13059998,-0.297420084,0.583956659,0.846046627,2230,269
2625A,山南人民医院,山南地区,91.7706,29.261,20170601,7.943313953,3898,2931,-293440.6663,-82894.96948,3554,0.663208723,217.407135,279.0942993,61499.89844,0.001461139,321.644989,-7.48978e-06,46.35028076,-0.402872384,0.526820302,0.088327661,2181,1244
1826A,世纪星幼儿园,开封,114.2886,34.7967,20170601,58.68994413,3013,6534,1612557.143,733414.1485,74,0.685132325,226.0942535,287.9278564,100723.9375,0.001241425,214.7375946,-1.33414e-05,58.19022369,-0.493613899,0.47513324,0.858758092,3013,643
2870A,市疾控中心,镇江,119.4369444,32.18888889,20170601,49.86908078,3430,7358,2112178.604,525155.5737,38,1.034299016,260.9939575,288.0992737,101488.7109,0.002501329,257.5121765,-2.24585e-05,69.50085449,-1.021541238,0.161950588,0.780995071,3637,1337
1457A,市环保局,拉萨,91.1221,29.6747,20170601,15.42241379,3832,2828,-350402.4839,-31725.91307,3659,0.270927548,2.284201145,278.810791,60481.10938,0.001035743,341.0104675,-4.75675e-06,38.77491379,0.0107978,0.270712286,0.092499048,2179,385
2612A,景洪市江南,西双版纳州,100.7939,22.0019,20170601,25.28366762,5060,4375,576217.6784,-918539.9801,551,0.537201285,0.952060878,294.5121155,91861.92188,0.003040961,61.1054039,-4.31799e-06,78.18933105,0.008925479,0.537127137,0.303641975,4920,1232
3039A,第一小学,三门峡,111.19,34.7822,20170601,56.6448468,3015,6038,1356372.993,684876.3217,380,1.029007792,241.8014832,286.2153625,96123.84375,0.001181354,170.224762,-1.24794e-05,63.56178284,-0.90686518,0.486263812,0.643537164,2388,1396
2598A,西南郊,丽江,100.2143,26.8576,20170601,19.28389831,4283,4282,488704.2501,-358333.2514,2385,0.46882689,49.05317307,285.002533,73996.99219,0.002544035,157.1844635,-4.31272e-06,64.14559937,0.354105651,0.307258576,0.191317394,3915,1219
1050A,丛台公园,邯郸,114.4965,36.61981,20170601,70.51810585,2721,6567,1586248.191,953004.222,60,0.522804618,37.71175385,287.1472473,100565.875,0.000738263,185.5763855,-9.77771e-06,52.73729324,0.319785953,0.413595915,0.802223086,2015,38
2997A,王营,泰州,119.8767,32.3292,20170601,46.44334278,3407,7428,2145171.081,550960.3736,5,1.032977343,260.0223999,288.0259094,101659.2734,0.002538252,260.3939514,-1.99987e-05,69.54625702,-1.01734674,0.179018795,0.760640621,3235,1370
1182A,农科院,徐州,117.2933,34.2778,20170601,67.94117647,3096,7015,1873800.709,725547.0071,38,1.065492511,240.4212341,287.5091248,101328.3672,0.001641876,209.3422546,-1.38517e-05,62.7490654,-0.926618814,0.525976956,0.810331285,3063,158
1628A,市环保局,滨州,118.0062,37.3803,20170601,57.56779661,2599,7129,1845566.532,1104423.454,12,0.803805292,224.1965942,285.9595032,101618.4063,0.00080481,192.4468994,-1.06852e-05,52.11980438,-0.560337603,0.576302648,0.791954517,2410,472
1414A,缙云山,重庆,106.379,29.8272,20170601,31.79189944,3808,5269,1024070.277,38831.25409,569,0.727498531,314.1569824,291.4524231,97223.65625,0.00149034,129.0305786,-9.87306e-06,73.65727997,-0.521967232,-0.506758571,0.936833382,5508,349
1295A,象湖,南昌,115.892,28.6425,20170601,36.65598886,3997,6791,1899881.024,41794.03185,23,1.346121788,344.2358704,291.196167,101270.0391,0.002581747,234.6418762,-2.40028e-05,71.11257935,-0.365821183,-1.29546082,0.67128396,2364,248
1117A,开发区,大连,121.7769,39.0511,20170601,29.50833333,2332,7732,2086380.808,1376633.089,36,0.22735922,121.3709869,284.0149536,101059.1094,0.000464833,449.9803772,-7.95607e-05,61.49964142,0.194130003,-0.118345924,0.629770041,2882,99
2169A,市环保局,朔州,112.4078,39.3265,20170601,48.93417367,2288,6233,1360215.148,1244938.864,1104,1.243502975,67.59925842,279.388031,87890.69531,0.001008321,172.6505585,-3.76435e-06,54.18214417,1.149653077,0.473917067,0.418770075,2113,836
1074A,电机北厂,衡水,115.6951,37.7575,20170601,58.14285714,2539,6759,1653497.29,1107962.694,22,1.171304941,207.1447449,286.6327515,101397.5391,0.000760664,202.3623657,-1.17335e-05,49.35187531,-0.534381628,1.042301178,0.857591271,2515,60
1744A,松山一中,赤峰,118.9233,42.2814,20170601,24.72268908,1815,7276,1773620.886,1702038.747,568,1.161489248,78.83686829,279.4663086,94247.65625,0.000646835,275.7804565,-4.18163e-06,44.60363007,1.139504671,0.224914044,0.444131255,1742,567
2406A,气象站,南阳,112.5573,33.027,20170601,60.09610028,3296,6257,1507296.133,496653.6545,128,0.746194363,302.8924561,288.0501404,99963.35156,0.001378033,203.260376,-1.25738e-05,66.75246429,-0.626598716,-0.405191392,0.841064394,2180,1053
1661A,港务局,日照,119.54,35.3962,20170601,42.57464789,2917,7374,2025527.588,901278.7395,8,0.455493599,230.3441315,286.6143799,101210.8516,0.000822518,359.7850037,-6.46903e-05,65.52081299,-0.35067302,0.29069373,0.682033181,2252,500
1866A,牛尾岭水库,北海,109.2256,21.5958,20170601,34.31700288,5125,5724,1417376.638,-879368.5347,30,1.062204719,275.8356323,296.1120911,101067.7266,0.0028437,345.6342468,-6.97215e-05,77.09281921,-1.056705356,-0.107947953,0.47739923,5340,679
2389A,环保西院,新乡,113.836,35.31,20170601,57.52793296,2930,6462,1563381.466,786912.6748,73,0.555281818,316.6461182,287.9078979,100077.8984,0.000832964,171.0006866,-8.73702e-06,54.34914017,-0.381230593,-0.403733969,0.79844743,3130,1038
1125A,甩湾子,长春,125.633,43.55,20170601,26.19602273,1612,8349,2209040.299,1987533.649,221,1.301642656,41.46250534,277.507019,98710.07813,0.001216662,256.736908,-8.99204e-06,61.24198151,0.86183548,0.975455284,0.457995176,3629,107
1298A,省站,南昌,115.931,28.6844,20170601,35.57244318,3991,6797,1902326.184,47392.41275,22,1.313311934,346.98172,291.1802979,101390.7734,0.002646531,236.6606598,-2.5529e-05,71.18412018,-0.29594928,-1.279532075,0.670797646,2181,250
2164A,泽州一中,晋城,112.8252,35.4813,20170601,60.03361345,2903,6300,1476699.522,791617.9062,726,0.42642048,250.3935242,284.124176,92247.38281,0.00101096,170.0814362,-6.02659e-06,59.60507202,-0.401691258,0.143103316,0.663295627,2784,831
1229A,朝晖五区,杭州,120.157,30.2897,20170601,50.10972222,3734,7473,2230477.998,321552.287,14,0.795664549,301.7076721,289.5498047,101255.6875,0.002588751,238.3686981,-1.90325e-05,72.02410889,-0.676930428,-0.418147385,0.70338881,2540,196
2013A,富春二小,富阳,119.946,30.049,20170601,31.72916667,3772,7439,2219365.401,289073.9742,14,0.626450121,309.6399536,289.4871216,100054.5703,0.002785187,210.4428864,-1.15656e-05,74.15386963,-0.482436299,-0.399618506,0.694573581,3362,811
1157A,浦口,南京,118.626,32.0878,20170601,38.83383686,3446,7228,2046347.497,496252.9203,38,1.059375405,266.2998962,288.1353455,101181.7188,0.002397407,239.8341217,-1.86948e-05,68.09899139,-1.057164073,0.068412669,0.776954234,3913,138
1048A,东污水处理厂,邯郸,114.5426,36.6164,20170601,75.5491573,2721,6575,1590031.055,953344.1355,55,0.515759468,26.72362709,287.2576294,100767.0391,0.000736678,189.2630768,-9.73578e-06,52.43909454,0.231924117,0.460672349,0.802488446,2694,36
2255A,佳纺,佳木斯,130.2719,46.8025,20170601,28.64647887,1092,9091,2390031.597,2472648.711,82,1.240229607,60.56204224,274.4664917,100031.8828,0.000705877,207.1914978,-8.80682e-06,65.10733795,1.080082536,0.609582782,0.368902862,2553,916
1705A,西园路,潮州,116.6339,23.6714,20170601,29.08888889,4793,6909,2093378.022,-511547.168,17,0.72311306,272.6368408,294.2747498,101239.7188,0.002698529,203.0926514,-1.7308e-05,81.17048645,-0.722348988,-0.033232827,0.430449426,2247,534
2696A,艺术中心,阿克苏地区,80.2956,41.1933,20170601,69.5377095,1989,1095,-1116731.913,1435698.672,1122,0.92384398,339.5630493,285.6088562,88587.33594,0.000293061,112.823555,-1.7371e-05,45.95623779,-0.322655797,-0.86566788,0.252849162,1907,1310
2654A,监测站,张掖,100.4686,38.9467,20170601,19.8,2349,4323,431902.6137,1089882.506,1472,0.839065254,9.563155174,282.3387146,84065.375,0.000365978,109.1428146,-4.14774e-06,37.37229919,0.139393717,0.827405512,0.235155448,1970,1270
1383A,北街,江门,113.104,22.6069,20170601,37.28011204,4963,6345,1778601.174,-701598.0687,8,0.587068558,255.4230499,295.0271301,101057.6484,0.003360467,254.9163208,-2.3507e-05,75.69476318,-0.568165421,0.147775501,0.53491056,3303,321
2424A,陈家湾,黄石,115.0767,30.2028,20170601,54.00704225,3748,6660,1789245.231,207544.5506,78,0.897421241,250.8583374,290.3422241,101205.3047,0.002554582,190.3108521,-2.52694e-05,70.76367188,-0.847792745,0.294299781,0.750813127,4247,1063
2195A,附中,巴彦淖尔,107.4211,40.7608,20170601,25.21610169,2058,5435,950998.4104,1359328.547,1040,0.293677479,52.34536362,282.9934082,89954.98438,0.00024931,198.2429352,-6.39955e-06,33.65159988,0.23250179,0.179413959,0.380846113,1425,858
1958A,经济开发区,库尔勒,86.2381,41.7128,20170601,41.54929577,1906,2046,-661375.6868,1445002.354,979,0.706081092,350.4817505,286.9968262,89745.60156,0.000135102,193.5648041,-9.89858e-06,36.06020355,-0.116819926,-0.696350217,0.235998198,1532,761
1776A,江南公园,吉林,126.55,43.8256,20170601,32.43871866,1568,8496,2262258.937,2040484.807,195,1.088535547,25.58363914,276.1708069,97975.71094,0.001322086,223.7497253,-1.10763e-05,66.50260925,0.470047265,0.981817245,0.46669054,1638,597
1165A,苏州新区,苏州,120.543,31.2994,20170601,40.22777778,3572,7535,2233000.766,446679.0467,7,1.694848657,268.4058838,289.5557251,101547.4375,0.001747284,339.7496948,-6.02197e-05,71.79953003,-1.694190621,0.04722571,0.718467355,2552,146
2479A,零陵区环保局,永州,111.6236,26.2331,20170601,39.27011494,4383,6108,1563666.138,-311957.2524,119,0.679004788,300.6091919,292.0270691,99986.16406,0.001487941,253.2713013,-1.18733e-05,71.9759903,-0.584413886,-0.345699102,0.734659016,3515,1115
2920A,蓝田镇,漳州,117.7116,24.506,20170601,32.09052925,4659,7082,2173656.156,-393756.7023,8,0.674512506,260.6334229,293.9732971,100665.5156,0.002155975,204.3484039,-1.09609e-05,77.69190979,-0.665514886,0.109804727,0.420130253,2864,1360
3048A,九龙,福州,119.58,26.0931,20170601,24.6103352,4405,7381,2303040.135,-171368.0378,46,2.147257328,325.8845215,292.2287903,99451.75781,0.002383557,414.9331055,-7.29902e-05,81.43119049,-1.204450607,-1.777642488,0.43510133,3425,1398
1371A,湾梁,佛山,113.134,23.0048,20170601,35.82152975,4899,6349,1773092.54,-655937.0211,3,0.817487895,265.354126,295.2848511,101244.7109,0.002753559,250.8326569,-2.57542e-05,72.20375824,-0.814799011,0.066249952,0.572459698,2664,309
2593A,小围寨,黔南州,107.5228,26.2403,20170601,23.11350575,4382,5452,1180261.849,-368389.7049,877,0.79744947,252.5640717,288.0232544,90582.97656,0.002956341,301.2262268,-9.07251e-06,84.0309906,-0.760799825,0.23897551,0.573387146,5582,1214
2639A,世纪广场　,榆林,109.7456,38.2911,20170601,29.62570621,2454,5807,1172750.782,1086224.077,1071,0.422878504,185.6974182,283.2213135,88814.13281,0.00075286,251.7909088,-1.14078e-05,48.07284164,-0.041980024,0.420789629,0.408533186,1739,1256
2266A,人和东街,绥化,126.9934,46.6384,20170601,29.89728097,1118,8567,2182647.764,2377406.709,179,0.880041957,60.71829224,274.9450073,99416.40625,0.000813144,190.606781,-7.22109e-06,65.49192047,0.767581582,0.430455983,0.362668186,1582,924
1341A,火车新站,长沙,113.0014,28.1944,20170601,52.33757062,4069,6328,1649849.695,-62343.35904,48,0.786838472,348.3643494,290.9443665,100827.4063,0.002591404,236.0260315,-1.72821e-05,72.36945343,-0.158762127,-0.770655155,0.784723103,1952,287
2635A,市监测站,汉中,107.0154,33.0706,20170601,47.69553073,3289,5370,1033811.955,430151.5471,510,0.12008667,173.3561401,287.5496521,94011.75,0.001753839,77.07151031,-2.24398e-06,75.89679718,0.013904395,-0.119278982,0.569553077,2997,1252
2359A,财苑宾馆,鹰潭,117.0281,28.2403,20170601,34.53501401,4062,6972,2012071.248,18009.31259,37,0.819194257,316.5574951,291.7428284,100789.1016,0.00241605,176.9019012,-1.45328e-05,70.7614975,-0.563341439,-0.594748437,0.593418539,2952,1009
2355A,市气象局,新余,114.9314,27.8036,20170601,42.52089136,4132,6637,1833711.29,-73378.90729,60,0.785281599,308.9792175,291.7711487,100887.9922,0.002918826,231.6656952,-1.55332e-05,71.69377899,-0.610490441,-0.49393183,0.658805549,2279,1005
2489A,市委党校,娄底,112.0194,27.7314,20170601,31.31779661,4143,6171,1570188.666,-132182.1904,132,0.795218647,338.3766174,290.4475708,99497.10938,0.002292658,231.5582733,-1.25185e-05,74.19737244,-0.293101609,-0.739232183,0.774625421,3047,1124
2860A,宾水西道,天津,117.1589,39.0845,20170601,50.49011299,2327,6993,1732426.392,1290822.258,4,1.061497211,190.7718964,285.3466492,101646.2031,0.000780756,198.9930115,-2.10249e-05,49.79409409,-0.19838728,1.042793751,0.853808522,2464,1331
2002A,宜兴市环保局,宜兴,119.818,31.354,20170601,47.49582173,3563,7419,2169365.122,436744.0927,8,1.484939218,258.0192871,289.3616028,101354.0156,0.002016003,319.4496765,-6.25229e-05,71.55879211,-1.452581286,0.308305174,0.745851994,2767,801
1222A,宿豫区环保局,宿迁,118.3214,33.9506,20170601,54.23463687,3148,7179,1967887.84,707296.6077,20,1.010190964,248.2906799,287.3928223,101477.8359,0.00178478,229.0317688,-2.27493e-05,64.30950928,-0.938527524,0.37370038,0.784743369,2690,189
2669A,监测站,甘南州,102.905,35.0003,20170601,27.56901408,2980,4713,662441.9863,625862.2214,2907,0.848208785,282.2159119,274.5579529,69771.72656,0.001358416,141.4181213,-3.48597e-06,71.5104599,-0.829012394,-0.179434091,0.210101157,3731,1284
1150A,浦东张江,上海,121.577,31.2071,20170601,40.78472222,3587,7700,2324167.601,460024.3326,3,1.130100608,262.7351379,289.105072,101655.9688,0.001969476,387.7877808,-4.23951e-05,75.65406036,-1.121022224,0.142955974,0.642294884,3352,131
2432A,襄城运动路,襄阳,112.155,32.0197,20170601,64.06741573,3457,6193,1494087.063,371650.2164,69,0.583027184,205.0807037,288.690094,100355.3984,0.001769713,229.0804749,-1.67241e-05,67.86605835,-0.247135058,0.528057694,0.838162959,2640,1070
1976A,招远教育局,招远,120.394,37.364,20170601,30.69662921,2602,7511,2033545.987,1149639.666,75,0.826941431,210.5200043,284.61203,100253.1016,0.000805083,325.6167908,-1.87553e-05,63.81868362,-0.419942141,0.712376833,0.646867514,3377,776
1881A,三水厂,绵阳,104.7283,31.5072,20170601,50.53472222,3539,5005,856257.0921,222032.7411,468,0.575144768,339.2542725,290.3222656,95207.50781,0.000890028,139.0517731,-1.02673e-05,65.27946472,-0.203772381,-0.537836671,0.734473348,3465,689
1636A,三金集团,淄博,117.8512,36.8041,20170601,56.51267606,2691,7104,1849471.486,1033488.843,50,1.001184344,193.5328674,285.7624207,100466.4766,0.000942024,184.0343933,-8.87756e-06,56.74019241,-0.234273672,0.97338891,0.784299135,2390,480
1983A,乳山市环保局,乳山,121.531,36.913,20170601,20.8988604,2674,7693,2137020.943,1120939.008,24,0.297029167,103.4968414,284.7035522,101225.7266,0.000956236,348.9638977,-3.36368e-05,68.25534058,0.288829744,-0.069308795,0.585755289,2189,783
1173A,市环境监测站,连云港,119.176,34.5885,20170601,42.12256267,3046,7316,2019845.744,799261.05,5,0.808309436,243.9462128,286.9439087,101566.2344,0.001325007,254.9545135,-1.93785e-05,64.7420578,-0.726159155,0.355045199,0.711947203,2541,153
1317A,郑纺机,郑州,113.641,34.7745,20170601,63.62078652,3016,6431,1559584.469,720331.9279,103,0.665182531,210.0144043,288.1921082,100404.6094,0.001011267,214.8143311,-1.27262e-05,58.54251862,-0.332727224,0.575986445,0.839864969,1961,264
1672A,韶关学院,韶关,113.6734722,24.77908333,20170601,34.24229692,4615,6436,1786357.567,-444068.7309,109,0.293609947,292.8977661,293.0881042,99527.21875,0.002214485,172.4920959,-1.06398e-05,76.00717163,-0.270480275,-0.114224441,0.543126583,5945,508
1620A,新光毛纺厂,临沂,118.2764,34.9817,20170601,46.4432133,2983,7172,1934992.172,827221.8775,67,0.695376277,241.1823883,286.5305481,100856.2891,0.001240561,209.2254639,-1.31028e-05,62.69041824,-0.609249353,0.335206538,0.7568174,2636,466
1739A,赛鱼,阳泉,113.4922,37.8792,20170601,50.03267045,2519,6407,1476932.222,1087367.834,814,0.712742805,85.05738068,281.4868774,90467.03125,0.001168665,160.7254639,-4.35382e-06,61.85591507,0.710089743,0.061439585,0.575711429,3710,562
1380A,张溪,中山,113.3881,22.5497,20170601,33.25770308,4972,6390,1807414.348,-702891.347,2,0.793949068,250.8421021,295.2735291,101052.7891,0.002968894,287.220459,-3.49542e-05,76.26359558,-0.749968886,0.260579675,0.531543255,2896,318
1375A,容桂街道办,佛山,113.257,22.7629,20170601,34.17746479,4938,6369,1790137.48,-681142.5905,3,0.723628044,253.4748993,295.2415161,101252.6875,0.003101477,255.1836243,-2.73967e-05,73.64826965,-0.69373095,0.205851644,0.548339605,2149,313
1057A,人民公园,张家口,114.8985,40.8367,20170601,26.28910615,2046,6632,1515272.393,1462367.043,920,0.938503146,343.3285522,279.1560059,90271.85156,0.000821549,209.9865265,-3.5811e-06,49.03476715,-0.269316286,-0.899031103,0.484285414,3527,45
1708A,新兴,揭阳,116.3697,23.5353,20170601,30.43258427,4814,6867,2071619.981,-532528.3935,8,0.602673233,262.4718018,294.2104187,100526.625,0.002467811,201.5692596,-1.58238e-05,79.18592834,-0.597475111,0.078984156,0.426376343,1827,536
2178A,地区技校,运城,110.9678,35.0308,20170601,72.14185393,2975,6003,1333068.274,711438.7731,362,1.150477529,248.6179047,287.1377869,96518.46875,0.000945231,162.3888092,-1.19863e-05,58.51220322,-1.071275115,0.419485599,0.61713022,3126,843
2606A,市经济开发区,楚雄州,101.538,25.0492,20170601,21.25348189,4572,4494,626668.5345,-562008.4502,1787,1.421431303,12.47855949,288.5471497,80281.83594,0.00224828,260.5528259,-6.07959e-06,66.85070801,0.307125956,1.387854695,0.256832361,4176,1227
1244A,龙湾,温州,120.76,27.9747,20170601,30.625,4104,7570,2353809.713,70498.58135,16,1.17950809,321.7615356,290.9420166,100536.5547,0.002538435,329.4247131,-5.69942e-05,78.96625519,-0.730107486,-0.926381409,0.518862009,3556,208
2517A,市环保站,河池,108.054,24.6928,20170601,30.28151261,4629,5537,1253969.228,-540945.8669,245,0.535634458,270.6789856,292.1390686,96881.55469,0.003584113,238.6083221,-1.20872e-05,79.8213501,-0.535597146,-0.006322374,0.575574994,5054,1149
1948A,大武口黄河东街,石嘴山,106.3717,39.0153,20170601,49.59103641,2338,5267,895615.8444,1138099.749,1110,0.68385905,120.7404327,284.3329773,88127.45313,0.000343931,212.1736603,-6.47785e-06,38.18918228,0.587792933,-0.349517733,0.391967505,2036,751
2705A,第二水厂,伊犁哈萨克州,81.3364,43.941,20170601,54.96022727,1550,1262,-991604.3656,1757332.027,664,0.524003804,347.693512,285.4779358,92675.10156,0.000412368,278.4420471,-1.29559e-05,46.75620651,-0.111731127,-0.511953294,0.207190394,2589,1318
2658A,仓门街子站,酒泉,98.509,39.746,20170601,32.68854749,2221,4009,273742.0588,1180166.037,1467,1.165856719,32.14234161,282.2484741,83745.92969,0.0002078,131.4166107,-6.93406e-06,37.21934891,0.62024796,0.987174928,0.227842391,2087,1274
2619A,泸水一中,怒江州,98.8546,25.8417,20170601,15.54347826,4445,4065,366013.8104,-483171.6468,1021,0.498714298,95.24827576,287.3891907,80338.42188,0.003561329,36.45748901,-9.06615e-07,77.69726563,0.496625751,-0.045593917,0.223707095,5520,1239
2632A,林芝监测站,林芝地区,94.3681,29.6376,20170601,9.39017341,3838,3347,-57140.49478,-42861.69842,3017,0.269031703,206.3456268,275.1026917,63637.25391,0.002380212,158.4367981,-4.02048e-06,78.79019165,-0.119388916,0.241089895,0.135992765,3030,1249
1851A,君山区,岳阳,112.9943,29.4402,20170601,47.75,3870,6327,1622358.194,82500.33901,27,0.975420594,311.0901489,290.5697937,101300.9297,0.002306274,259.1890564,-3.23957e-05,70.60830688,-0.735194564,-0.641041577,0.811621726,4660,667
1463A,兴庆小区,西安,108.993,34.2629,20170601,62.91193182,3098,5687,1182542.844,594613.5413,425,0.540483534,203.4666443,286.5937805,94704.72656,0.001267999,89.58302307,-7.17826e-06,63.32247162,-0.215222761,0.495783836,0.61308378,2384,391
2220A,西梁,朝阳,120.4439,41.5931,20170601,27.10888252,1925,7519,1905460.834,1648952.346,174,0.694162071,76.59540558,281.1581116,98463.25781,0.00073706,287.0365906,-4.90828e-06,48.51871872,0.675244868,0.160951361,0.544203877,2238,881
1836A,开发区,三门峡,111.158,34.794,20170601,58.11898017,3013,6033,1353483.249,685839.5396,333,1.063268185,240.825943,286.2734375,96021.22656,0.001163409,168.209137,-1.28776e-05,63.14827728,-0.928368807,0.518334508,0.633691907,2616,653
2251A,苗圃,双鸭山,131.1572,46.5888,20170601,31.57807808,1126,9233,2456745.18,2470001.516,166,1.528999805,63.39850616,274.3969421,98117.24219,0.001057673,293.0010376,-7.44515e-06,67.88625336,1.367121458,0.684703946,0.365666866,3368,912
1193A,旺庄,无锡,120.354,31.5475,20170601,42.00139665,3532,7505,2209286.177,471051.4473,5,1.474445462,265.7662354,289.1332092,101617.7656,0.00180756,319.4313049,-4.36141e-05,70.63874054,-1.470417142,0.1089174,0.733866453,2705,167
1001A,万寿西宫,北京,116.366,39.8673,20170601,54.73389356,2201,6867,1650847.552,1370268.366,46,0.458176732,68.18715668,284.5610657,100809.2734,0.001006295,134.995636,-6.92884e-06,46.31597519,0.425366431,0.170262426,0.870966613,2401,0
2555A,市政府,雅安,103.0109,29.9834,20170601,42.66619318,3783,4730,720255.403,27403.97875,626,0.316516459,113.4783554,287.4503174,89747.13281,0.001829886,91.54737091,-4.13763e-06,77.02692413,0.290319622,-0.126084,0.67332238,3623,1184
1427A,礼嘉,重庆,106.562,29.6453,20170601,35.45125348,3837,5298,1042999.88,19303.69085,312,0.7348122,314.2977295,291.8200378,97822.03906,0.001464822,129.1272736,-1.05866e-05,73.43989563,-0.525955498,-0.513146877,0.944549024,3468,359
3020A,中山北路,天津,117.2099,39.16969,20170601,47.05177515,2313,7002,1734019.558,1301837.331,6,1.009168148,188.9460144,285.3578491,101659.0703,0.000786501,199.6832275,-1.87119e-05,49.46067047,-0.15692535,0.996892631,0.854454517,1978,1384
1763A,彩屯,本溪,123.7308,41.3047,20170601,28.61699164,1971,8045,2155138.321,1682943.257,144,0.922013879,205.1357117,279.1554565,98943.08594,0.001129588,224.1584473,-7.41297e-06,61.90137863,-0.391627342,0.834708095,0.537741661,2687,585
1269A,余庄前,丽水,119.879,28.4231,20170601,30.35369318,4032,7429,2261806.644,100997.9407,91,0.508110583,262.9339294,290.1945801,98859.85938,0.002466876,213.1069641,-7.91098e-06,76.61692047,-0.504248798,0.062526032,0.547872603,4250,225
1112A,青泥洼桥,大连,121.6330556,38.91194444,20170601,30.51815642,2354,7709,2079987.485,1357256.377,46,0.282652378,113.857338,284.4724426,101299.0703,0.00044155,503.0411987,-9.79461e-05,61.74584961,0.258507937,-0.114306651,0.625500381,2470,95
2436A,市政府,鄂州,114.8878,30.3944,20170601,50.14027778,3717,6630,1768059.307,226452.2841,24,0.874894619,276.6123962,290.2131958,101045.5234,0.002510336,189.8375244,-3.00083e-05,69.40388489,-0.869079709,-0.100702628,0.759871244,1658,1074
2196A,市环保大楼,巴彦淖尔,107.3715,40.7378,20170601,27.96590909,2062,5427,947573.7867,1356062.368,1040,0.285980821,54.19656372,282.9250183,89846.64063,0.000251976,195.9321289,-6.2974e-06,33.7673378,0.231934026,0.167307049,0.385956138,2749,859
1350A,番禺中学,广州,113.352,22.9477,20170601,36.97331461,4908,6384,1795385.041,-658456.8606,5,0.780080557,256.8186951,295.2226563,101327.8203,0.003241642,255.1020203,-2.81505e-05,73.54603577,-0.759521067,0.177914217,0.552449226,2860,295
2925A,上海东路,银川,106.2739,38.4841,20170601,46.99579832,2423,5252,895351.3302,1072964.546,1110,0.473322898,120.1210175,283.5683899,88067.51563,0.000310477,140.2265015,-5.75058e-06,38.99528885,0.40942362,-0.237501323,0.382548392,2609,1365
1852A,金凤水库,岳阳,113.2117,29.355,20170601,43.30473373,3883,6362,1643597.387,76179.86234,71,1.034198046,308.8942871,290.4233704,100753.5703,0.002508281,250.443222,-3.21744e-05,71.83750916,-0.804965317,-0.649304628,0.784529328,4938,668
1896A,市环监站,泸州,105.4322,28.8833,20170601,37.04353933,3959,5117,951057.5106,-81923.14732,287,0.428428441,338.7138062,292.0162964,97810.24219,0.001259443,146.6868134,-1.27581e-05,73.43582153,-0.155563533,-0.399187833,1.069990754,2367,703
1382A,长江旅游区,中山,113.4411,22.4853,20170601,37.20505618,4982,6399,1813946.72,-709203.02,58,0.897511721,253.7532501,295.2511292,100724.7031,0.002844854,302.9868774,-4.00436e-05,76.9348526,-0.861660779,0.251133561,0.514138818,5930,320
1606A,新生街道,盘锦,121.835,41.1042,20170601,29.90948276,2003,7742,2023224.622,1619100.758,2,0.677488744,24.92010117,282.0646057,101638.8203,0.000876145,302.4534607,-1.18073e-05,51.40505981,0.28545469,0.614415646,0.594777703,4209,454
2660A,区环保局,庆阳,107.6831,35.7289,20170601,28.02793296,2863,5477,1049711.082,755084.3459,1372,0.443602949,192.6305237,283.2072449,87041.35156,0.000973954,214.7493896,-8.46936e-06,57.25603104,-0.096996769,0.43286857,0.457609594,3233,1276
2001A,第二实验小学,江阴,120.302,31.92,20170601,56.37743733,3473,7496,2193513.676,512951.7971,5,1.046705961,260.4523926,288.3370056,101629.8203,0.002056117,284.5577698,-2.28534e-05,70.74123383,-1.03219986,0.173656955,0.743012309,2689,800
1137A,道里建国路,哈尔滨,126.593,45.7478,20170601,37.80972222,1260,8503,2190785.417,2264990.9,125,1.233011007,48.54213715,275.9775391,99857.80469,0.000717233,211.4166107,-6.93665e-06,61.31793594,0.924050808,0.816361547,0.415853322,1449,118
1804A,茅山头,九江,115.9581,29.7048,20170601,43.60306407,3827,6801,1879154.198,166102.221,15,0.904241383,300.8624878,290.1009216,100838.0078,0.00316569,233.4998932,-3.1819e-05,74.71866608,-0.776230514,-0.463808835,0.697830498,1723,624
2180A,机引,忻州,112.7356,38.4186,20170601,59.60806916,2433,6286,1405400.437,1140755.144,789,0.404523879,38.41837692,282.6290588,91183.39844,0.001036057,105.0215073,-2.69457e-06,52.31288528,0.25136447,0.316947103,0.49778372,1960,845
1118A,双D港,大连,121.9769,39.0631,20170601,25.05477528,2330,7764,2101175.915,1382302.305,22,0.332625717,119.8187866,283.7857971,101264.1484,0.000470483,433.2407532,-7.18987e-05,61.11878967,0.288597077,-0.16538316,0.610258937,5345,100
2428A,武当山,十堰,111.0419,32.395,20170601,29.91477273,3397,6015,1390732.183,399611.1341,906,0.581072748,209.7067719,286.7265625,94688.42188,0.001876009,142.3296661,-9.13777e-06,74.19376373,-0.287949502,0.504708469,0.753336906,5870,1066
1192A,东亭,无锡,120.354,31.5848,20170601,47.23011364,3527,7505,2208148.792,475361.1,5,1.360104203,265.8167725,289.0026855,101634.0,0.001826354,315.2738647,-4.04245e-05,70.69758606,-1.356476307,0.099274106,0.731728971,2739,166
2341A,宁德市监测站,宁德,119.5392,26.6611,20170601,26.51523546,4314,7374,2282844.531,-107819.6424,27,0.323870301,312.7493896,290.3966675,97258.63281,0.003693326,199.8421326,-1.9882e-05,84.31491852,-0.237842545,-0.219824672,0.479809284,2961,991
1662A,华夏技校,威海,122.1206,37.4294,20170601,27.61864407,2591,7787,2166234.705,1194199.033,49,0.803479731,62.70717239,285.1461182,101083.7813,0.000853198,471.1765137,-6.81902e-05,66.57131958,0.714020133,0.368449271,0.591804385,3925,501
2230A,铁路,通化,125.9486,41.7381,20170601,30.97625698,1902,8400,2299752.038,1783789.329,390,0.599119246,12.36921501,276.0752563,95206.01563,0.001151769,219.2610016,-6.0522e-06,71.61951447,0.128333911,0.585213006,0.49060452,2644,891
2657A,博物馆,平凉,106.7039,35.5294,20170601,29.01532033,2895,5321,971934.4402,721072.8172,1353,0.850659192,70.81289673,280.9185181,84059.26563,0.001216197,195.6702728,-6.19449e-06,60.79110718,0.803395152,0.279601902,0.437777847,2564,1273
2572A,邛海宾馆,凉山州,102.2714,27.8408,20170601,20.54329609,4126,4611,672647.9158,-230713.8368,1692,0.34070766,231.2393494,289.4865723,82113.42969,0.001943677,190.5304871,-3.16795e-06,62.30973053,-0.265667349,0.213313311,0.260489076,5689,1198
1483A,第五水厂,西宁,101.524,36.6867,20170601,52.19736842,2710,4492,533365.5383,820935.9539,2424,0.454251558,194.5162811,278.0318604,73803.48438,0.001060768,185.4665527,-4.37961e-06,52.40709305,-0.11385712,0.439751089,0.199551359,3763,410
2275A,高新区,蚌埠,117.3065,32.8985,20170601,46.36619718,3316,7017,1912221.04,564196.9243,24,1.086892486,251.0886993,288.156189,101423.5391,0.002223765,227.8575592,-1.98286e-05,66.34241486,-1.02821064,0.352303892,0.797428012,2995,933
1167A,相城区,苏州,120.641,31.3708,20170601,39.74515235,3561,7551,2239173.479,457147.214,2,1.321242332,269.2276306,289.0168762,101649.5859,0.001808774,317.5026245,-3.80527e-05,72.2419281,-1.321121454,0.017870884,0.728561103,3169,148
1320A,经开区管委,郑州,113.727,34.7187,20170601,65.41432584,3025,6444,1567967.706,715090.1755,100,0.602924109,204.6053925,288.1590881,100277.3047,0.001053692,221.9347687,-1.23614e-05,58.79164505,-0.251030356,0.548179924,0.855601549,2533,267
2435A,襄州航空路,襄阳,112.2106,32.0903,20170601,71.5252809,3446,6202,1497407.433,380817.5614,68,0.691217363,219.5436859,288.7744751,100619.9531,0.001736499,235.1690521,-1.6929e-05,67.46040344,-0.440063983,0.533033907,0.838894904,2531,1073
1838A,风景区,三门峡,111.1489,34.7997,20170601,54.08100559,3012,6032,1352615.337,686392.7039,329,1.070873141,240.855072,286.2693481,95937.51563,0.001157618,167.9270477,-1.2907e-05,63.02849579,-0.935274065,0.521566451,0.632011414,2484,654
2304A,监测楼,宿州,116.9765,33.6481,20170601,55.37114846,3196,6964,1864434.692,645633.2906,29,1.067447782,248.0788727,287.8458862,101391.0156,0.002110152,206.2516174,-1.28069e-05,63.99135208,-0.990255952,0.398544848,0.804332256,2689,960
2463A,市一中,邵阳,111.4733,27.2317,20170601,51.66572238,4223,6084,1530103.717,-198774.641,235,0.950242102,301.5267029,290.3252563,98676.13281,0.002182061,233.4302521,-1.12113e-05,75.72887421,-0.810014248,-0.496826828,0.741808414,2417,1099
2181A,开发区,忻州,112.7383,38.4519,20170601,53.09014085,2428,6286,1404884.567,1144779.75,782,0.339300066,49.06974792,282.7994385,91406.52344,0.001043609,102.8699036,-2.58138e-06,52.14321136,0.256338179,0.222295448,0.494992226,2532,846
1594A,华泰汽车城,鄂尔多斯,109.8119,39.5989,20170601,28.25633803,2244,5818,1154064.629,1244488.435,1287,0.929235041,68.38034058,280.9314575,86874.60938,0.000770789,250.335022,-9.62404e-06,46.60416794,0.863851428,0.342401057,0.382480323,2382,443
1189A,黄巷,无锡,120.275,31.6219,20170601,42.90625,3521,7492,2200293.156,477876.4342,3,1.295582056,265.0903015,288.9356689,101614.1641,0.001821463,316.0049133,-4.37446e-05,70.39360046,-1.29082346,0.110939883,0.741893291,2283,163
2324A,三钢,三明,117.6211,26.2625,20170601,27.27222222,4378,7067,2118371.85,-196173.853,165,0.444835037,272.9368286,291.5320435,95914.74219,0.002275976,122.2554321,-8.6595e-06,74.80988312,-0.444251895,-0.022769809,0.434409648,4431,977
2216A,汇工街西,铁岭,123.8139,42.3022,20170601,27.88053097,1812,8058,2125927.469,1801558.985,59,1.102552652,18.07344627,280.2128906,100743.1484,0.001080358,296.0635071,-1.05773e-05,51.80924606,0.342041641,1.048155427,0.52020967,3603,877
2407A,理工学院,南阳,112.55,32.9683,20170601,55.1075419,3305,6256,1507927.955,489607.541,122,0.793991506,294.6564941,288.12854,100076.8281,0.001388169,209.1359406,-1.24941e-05,66.55693817,-0.72161895,-0.331192672,0.8530581,2810,1054
2221A,河畔小区,朝阳,120.4486,41.5672,20170601,25.5915493,1929,7520,1906615.979,1645982.219,168,0.688925862,72.19995117,281.1743774,98395.90625,0.000729882,286.1395874,-4.93262e-06,48.52017212,0.655938566,0.210626394,0.551502764,1894,882
1147A,静安监测站,上海,121.425,31.2261,20170601,41.84261838,3584,7676,2310595.562,458625.3112,10,1.076615334,263.7683411,288.881958,101648.6406,0.001991,345.5020142,-2.61719e-05,75.44211578,-1.070248723,0.116911449,0.653249979,2392,128
2485A,监测楼,怀化,109.9972,27.5578,20170601,42.84463277,4171,5848,1388282.358,-182807.7052,237,0.648509562,333.420166,290.02948,96947.46875,0.002482558,192.9264832,-1.07682e-05,74.33651733,-0.290217429,-0.579946935,0.710507154,2771,1121
2681A,官桥站,中卫,105.18,37.0172,20170601,35.66201117,2657,5077,827237.0702,886194.3756,1709,0.06970761,236.7164307,281.9941711,82823.27344,0.000755304,307.1931763,-1.00134e-05,49.86452866,-0.058271989,0.038256057,0.316709965,1231,1295
1633A,双山,淄博,117.8477,36.497,20170601,53.86827195,2741,7104,1857771.496,997198.9788,210,0.918748319,191.1878204,284.4354553,97179.71094,0.001116327,205.0503235,-8.73227e-06,63.06698227,-0.178255662,0.90128988,0.753453732,3443,477
2015A,北苑,义乌,120.04,29.334,20170601,33.41340782,3887,7454,2248945.915,209054.9511,79,0.730431855,306.7442627,290.3661194,100147.7109,0.002084197,252.8818817,-1.13591e-05,71.08288574,-0.585333467,-0.436938643,0.627880335,2648,813
2643A,安康市监测站,安康,109.0281,32.6939,20170601,42.38169014,3349,5692,1212324.387,408348.356,265,0.646802068,297.3444824,289.2582397,96412.1875,0.001689448,146.8538208,-5.42697e-06,68.89003754,-0.574546993,-0.297066778,0.62157917,2637,1260
2648A,动力公司,白银,104.1731,36.5481,20170601,30.22922636,2732,4916,750968.7358,821502.6867,1723,1.357420325,304.3940735,282.8800964,81643.40625,0.000577582,368.0976563,-6.99065e-06,44.21148682,-1.120154262,-0.766710103,0.302439153,1704,1264
1991A,兴福子站,常熟,120.721,31.671,20170601,43.43968254,3513,7563,2236717.59,493618.6458,59,1.096853256,263.1172485,288.5152588,101607.6484,0.002022156,309.8349915,-2.22294e-05,72.27472687,-1.088943124,0.131491572,0.71767801,5574,790
2580A,双水,六盘水,104.9544,26.5506,20170601,39.40833333,4332,5041,935450.6547,-359907.517,1830,0.752775967,235.1817627,285.1922913,81656.3125,0.002556966,243.2651978,-7.01063e-06,82.90953064,-0.617992401,0.42983377,0.532309413,5145,1206
1091A,小召,呼和浩特,111.658,40.8033,20170601,36.70612813,2052,6113,1271799.182,1412395.029,1047,0.64222759,168.9503174,280.3956909,88754.35938,0.000686376,172.7218628,-4.59743e-06,43.12671661,0.123144269,-0.630310833,0.413114309,1389,76
2249A,南小市,双鸭山,131.1651,46.619,20170601,26.38235294,1121,9234,2455925.625,2473652.797,148,1.56174469,63.78240585,274.4595642,98479.13281,0.001023261,290.5139771,-7.51846e-06,67.30860901,1.401054025,0.689995646,0.37264806,2648,910
2620A,古城,迪庆州,99.7064,27.8136,20170601,12.44481605,4130,4201,435754.6559,-248382.7472,3332,0.769264698,30.77442932,278.3132629,66492.28906,0.002137532,157.1840973,-1.82312e-06,76.16876221,0.393591106,0.660949469,0.116448417,2835,1240
1335A,经开区环保局,长沙,113.0833,28.2325,20170601,45.18472222,4063,6341,1656447.976,-56542.64937,58,0.754913509,345.0029907,291.0456848,100953.9219,0.002546156,228.4793396,-1.65101e-05,72.4181366,-0.195409775,-0.729184031,0.782874703,2941,281
1004A,天坛,北京,116.434,39.8745,20170601,52.26638177,2200,6877,1655828.045,1372270.098,45,0.376301795,52.71779251,284.6362,100936.8047,0.001010466,138.7939606,-7.13398e-06,45.38791275,0.299402714,0.227949664,0.869679332,2420,3
2464A,市化工厂,邵阳,111.4908,27.2582,20170601,49.60393258,4219,6087,1531193.251,-195428.9153,241,0.892938852,302.8062134,290.3187561,98755.125,0.002201652,233.749115,-1.10621e-05,75.82839203,-0.750552535,-0.483746529,0.748838544,3499,1100
2667A,环保局,临夏州,103.2139,35.6039,20170601,35.40756303,2883,4762,682179.6674,700656.2081,1894,0.572397292,24.49534416,279.8554688,78281.21875,0.001188712,151.5879822,-7.47118e-06,56.36581802,0.237320423,0.520881653,0.281044781,2991,1282
2636A,鑫源开发区,汉中,107.0089,33.1138,20170601,45.40730337,3282,5369,1032623.101,435231.6211,529,0.230627075,177.9336548,287.3482056,93392.75,0.001781352,73.77414703,-2.3815e-06,76.41027069,0.008336528,-0.23047635,0.575571477,3244,1253
2558A,市环保局,巴中,106.7389,31.8711,20170601,32.18662953,3481,5326,1027269.358,284549.2122,415,0.867936313,327.6471558,289.3360291,95038.95313,0.001942131,117.5797577,-7.93222e-06,72.65765381,-0.464516103,-0.733170033,0.683009744,3659,1186
1772A,哈达湾,吉林,126.555,43.8875,20170601,31.1800554,1558,8497,2260211.196,2047796.098,189,1.079998493,26.33688354,276.2576599,98285.03906,0.001296815,223.7047119,-1.02139e-05,65.95077515,0.479126126,0.967902243,0.469642848,1610,593
1388A,南城元岭,东莞,113.7461111,23.02777778,20170601,36.35734463,4896,6447,1831724.143,-642102.2446,12,0.806755424,254.6917572,295.0757446,100951.2109,0.003132683,247.7622833,-2.85361e-05,73.53556824,-0.778123081,0.213022873,0.543141365,2290,326
2668A,州委党校,临夏州,103.2064,35.5997,20170601,30.64345404,2884,4761,681600.5913,700098.1078,1900,0.600163102,26.28383255,279.7972107,78284.0,0.001211459,148.6433105,-7.22589e-06,56.6895752,0.265755832,0.538116693,0.282856673,2807,1283
1882A,石马中学,宜宾,104.5969,28.8194,20170601,49.5720339,3969,4983,875897.2962,-97212.4742,343,0.574995518,129.6760712,291.7008362,96878.45313,0.001207849,148.7240143,-1.31978e-05,71.91112518,0.44257912,-0.367074281,0.989683867,3609,690
2270A,工人疗养院,蚌埠,117.3961,32.939,20170601,64.66016713,3310,7031,1918670.525,570678.7543,22,1.080824018,249.8131409,288.1527405,101435.6563,0.002250776,229.1140442,-1.81879e-05,66.38648224,-1.014417887,0.373010516,0.791068852,2402,928
1177A,黄河新村,徐州,117.167,34.2761,20170601,66.15223464,3096,6995,1863411.971,722945.5328,39,1.082059622,239.4601135,287.5498657,101259.1094,0.001606595,208.2361145,-1.35953e-05,62.66415024,-0.931934714,0.549864292,0.819704533,2431,154
1480A,市环境监测站,西宁,101.748,36.6428,20170601,57.3005618,2717,4528,552015.3765,816863.6317,2264,0.710649133,226.2095337,279.507843,75252.89844,0.000825722,215.906662,-4.84229e-06,47.60145187,-0.512988389,0.491797805,0.206411824,2217,408
1513A,岳塘,湘潭,112.9227,27.8159,20170601,45.07222222,4130,6316,1650816.787,-107573.9053,48,0.919741392,355.3554382,291.0926514,100734.8203,0.002681269,239.6596375,-1.76111e-05,72.49411774,-0.074557491,-0.91671443,0.779583097,2675,423
1230A,和睦小学,杭州,120.12,30.3119,20170601,42.92936288,3730,7467,2226601.38,323268.5589,9,0.736901581,303.046875,289.4729614,101210.2656,0.002662131,233.4883118,-1.70592e-05,72.43157959,-0.617714643,-0.40181163,0.718350887,2814,197
1239A,钱湖水厂,宁波,121.633,29.7736,20170601,33.41340782,3816,7709,2374640.706,296908.9195,14,0.409499168,261.2898865,289.8026733,100623.3828,0.003139502,389.9339905,-3.83418e-05,78.82299042,-0.404773891,0.062029589,0.563440442,3775,203
3009A,矿山设计院,连云港,119.1478,34.5911,20170601,43.48860399,3046,7312,2017461.076,798985.8046,4,0.797383904,243.5589905,286.9277954,101606.3047,0.001318736,251.5277557,-1.82581e-05,64.62281799,-0.713960588,0.355079383,0.717554271,2879,1377
1985A,吴江市环保局,吴江,120.636,31.155,20170601,39.32271468,3595,7550,2245392.004,432143.7455,4,1.490454435,270.9126587,289.3637085,101641.1797,0.001800512,329.4098206,-5.48224e-05,72.49164581,-1.490266442,-0.023670746,0.704465568,3136,785
1719A,市政协,菏泽,115.474722,35.2375,20170601,57.86516854,2942,6724,1699312.921,805535.9362,54,0.831949711,222.1751099,287.7970276,101062.6094,0.000913777,198.8802338,-1.04138e-05,56.93972778,-0.558556497,0.616567075,0.870670557,2481,545
2543A,小平旧居,广安,106.631,30.518,20170601,32.56446991,3697,5309,1036942.361,123067.5478,352,0.983241498,316.0308228,291.1222229,97546.29688,0.001620776,117.719162,-8.80367e-06,75.80275726,-0.68268609,-0.707604051,0.872786343,4780,1173
1902A,西小区,德阳,104.3883,31.1333,20170601,44.57222222,3599,4950,830683.0648,174681.8665,496,0.548659325,172.5022278,290.3959961,95078.42969,0.001041836,145.555542,-1.02715e-05,66.26266479,0.071641371,-0.543961883,0.768450141,3244,707
1172A,紫琅学院,南通,120.81,32.0417,20170601,36.4957265,3453,7578,2232765.324,538466.3995,5,1.08083725,262.1073914,288.2396545,101693.6094,0.002118569,307.8841553,-2.43203e-05,72.72140503,-1.070592403,0.148462251,0.703569531,2223,152
1049A,矿院,邯郸,114.5035,36.5776,20170601,73.41736695,2728,6569,1587819.037,948101.7257,58,0.495076835,30.87116623,287.236084,100660.5781,0.000731497,188.6877289,-1.00877e-05,52.66633606,0.254021794,0.42493999,0.79543376,2499,37
2260A,环保局,七台河,131.0032,45.7677,20170601,36.55084746,1257,9208,2482815.008,2372189.291,216,1.180631995,79.34379578,274.5822144,98588.08594,0.000993838,285.6298218,-6.26285e-06,70.49327087,1.160262346,0.218364567,0.386563987,2153,921
1228A,浙江农大,杭州,120.19,30.2692,20170601,42.02361111,3737,7478,2233957.952,319942.6136,16,0.83724153,300.4840088,289.625946,101326.7969,0.002536721,242.3191986,-2.08055e-05,71.68570709,-0.721536756,-0.424685866,0.689756215,2102,195
1086A,桃园,太原,112.5369,37.8692,20170601,65.43201133,2521,6254,1401684.55,1072179.323,788,0.334386617,151.2243347,282.959198,91149.10156,0.001070591,142.3695221,-5.67258e-06,52.47053146,0.160990313,-0.293081105,0.50754863,1947,71
1795A,科创中心,芜湖,118.37,31.4189,20170601,49.21848739,3553,7187,2043439.952,413221.435,11,1.186893106,274.5854492,288.9786377,101514.2734,0.002047622,231.4064636,-2.42413e-05,68.49343872,-1.183098793,-0.094829425,0.756279826,1929,615
2309A,朝阳厂,六安,116.5068,31.7797,20170601,41.27668539,3495,6889,1873887.536,418081.2793,42,0.943426192,249.2676849,288.4832153,101150.4375,0.001974092,179.9130554,-1.27093e-05,68.33091736,-0.882322252,0.334006667,0.781720579,2305,965
2507A,贵城子站,贵港,109.6014,23.0944,20170601,37.92877095,4885,5784,1429010.944,-703298.6348,48,0.477540076,292.1697998,294.3154602,100070.1484,0.003168068,230.6963196,-1.64854e-05,77.30142212,-0.442245722,-0.180175558,0.546257377,2752,1139
2247A,五号水库,鹤岗,130.1097,47.3382,20170601,17.86571429,1006,9066,2356551.752,2530215.852,165,1.211852551,106.1408234,273.8323059,98534.24219,0.00099897,220.8084564,-5.24671e-06,69.71770477,1.164101243,-0.336830497,0.333137006,3711,908
2526A,监测站,广元,105.8624,32.4285,20170601,25.26044568,3392,5186,943530.1399,342052.0258,536,0.323060572,305.9998169,288.0357056,93082.72656,0.001399379,130.115387,-7.5737e-06,72.10784912,-0.261374444,-0.189872399,0.642406404,4924,1158
2567A,州监测站,阿坝州,102.2218,31.9025,20170601,10.50840336,3476,4603,632638.4853,250127.9872,2851,0.394913703,266.465332,275.1412964,66085.33594,0.001603235,82.3562088,-1.26611e-06,72.91881561,-0.394161373,0.02436492,0.144236654,6541,1194
1912A,凤凰山,遵义,106.9242,27.7019,20170601,27.95238095,4148,5356,1103341.07,-204955.212,887,1.202354431,270.5683289,288.2044373,90727.65625,0.00191777,244.1181641,-1.07353e-05,77.9752655,-1.202295899,-0.011870167,0.716519594,2940,717
1396A,大亚湾管委会子站,惠州,114.5317,22.7422,20170601,29.73285714,4941,6573,1914000.146,-659458.769,13,1.373717189,267.5316772,294.897522,100286.1016,0.00255526,293.9423828,-5.59032e-05,79.67350006,-1.372439981,0.059223849,0.465269625,4569,334
2535A,乐山大佛景区,乐山,103.7705,29.5467,20170601,48.10252809,3853,4851,792999.9033,-18418.85541,372,0.866698503,115.4364853,291.201416,96486.92188,0.001041266,134.0043945,-1.21778e-05,70.67670441,0.782704651,-0.37220937,0.895491362,4874,1167
2506A,江南子站　,贵港,109.6042,23.0672,20170601,37.3603352,4889,5785,1429748.163,-706364.8142,46,0.49199909,290.9143677,294.3914185,100189.6094,0.00313246,231.2391968,-1.64774e-05,77.10945892,-0.459593683,-0.175603926,0.542579949,3549,1138
2068A,周口师范,周口,114.6758,33.6347,20170601,49.04929577,3199,6596,1672341.262,602649.555,49,0.748358071,236.5259247,288.1223145,101065.2266,0.001586124,198.0141907,-1.23871e-05,62.57056808,-0.624219954,0.412782282,0.87323755,3095,822
1753A,明达新区,鞍山,123.0156,41.0831,20170601,32.32402235,2007,7930,2110588.975,1641456.644,89,1.017026067,196.005249,281.0834045,100501.4375,0.001024689,271.6261292,-8.07623e-06,52.90532303,-0.280411899,0.977604866,0.574787974,2426,575
2219A,金沙江路北,铁岭,123.7153,42.2217,20170601,31.41666667,1825,8042,2121699.179,1789996.492,58,1.052132249,17.39409447,280.3673096,100879.0859,0.001087904,297.6304932,-1.01178e-05,51.33463287,0.314517856,1.004022241,0.537185192,3710,880
2633A,林芝人民医院,林芝地区,94.3616,29.6632,20170601,7.451977401,3834,3346,-57708.5148,-39819.07344,3041,0.247635141,206.5253448,275.0056763,63619.57813,0.002420449,157.0464325,-3.84113e-06,78.7743454,-0.110589229,0.221569821,0.134660676,2168,1250
2287A,市新民污水厂,铜陵,117.7806,30.9414,20170601,50.90972222,3629,7093,2005936.429,345654.1852,14,0.928480089,286.5053101,289.1838379,101158.7266,0.002049056,218.535141,-2.3928e-05,70.53025055,-0.890235186,-0.26373601,0.735882163,3095,944
2361A,三川水表,鹰潭,116.9983,28.2169,20170601,34.9039548,4065,6968,2010008.366,14705.48526,40,0.821457267,317.1242981,291.7567444,100819.7031,0.002406403,178.7319183,-1.45717e-05,70.97229767,-0.558970392,-0.601950288,0.601747572,3139,1011
1221A,宿迁中学,宿迁,118.2442,33.9592,20170601,56.46619217,3147,7167,1961253.169,706759.3965,23,1.014962435,248.1983948,287.376709,101462.875,0.001779311,229.9592285,-2.6262e-05,64.2469635,-0.9423545,0.376983732,0.787112713,3330,188
2842A,湖里中学,厦门,118.0936,24.5058,20170601,25.02367688,4659,7143,2209551.664,-385259.0438,39,1.746042371,310.777832,293.9453125,101004.3281,0.002070068,353.769043,-6.05164e-05,78.85771942,-1.322263598,-1.140299439,0.407048494,2237,1326
1204A,职教中心,镇江,119.491,32.215,20170601,46.08888889,3426,7367,2115982.529,529348.7991,14,1.037587166,260.7250061,288.1010437,101552.3203,0.002504705,259.5843506,-2.32828e-05,69.39672089,-1.02401495,0.167273566,0.778085232,3445,174
2233A,江南,松原,124.8292,45.0878,20170601,27.28830084,1366,8221,2096559.17,2149522.049,134,1.231211782,38.10520172,277.7322388,99947.17969,0.00073872,254.6051636,-9.78751e-06,55.52175903,0.759770751,0.968829632,0.394981861,2514,894
1697A,东埔,河源,114.6944,23.7586,20170601,29.19382022,4779,6599,1906340.171,-541143.9331,44,0.585864961,327.2789001,293.8950195,99774.74219,0.002589757,229.3222809,-3.0059e-05,76.90437317,-0.316726774,-0.492871106,0.48905459,2415,527
2031A,云田中学,株洲,113.1817,27.9958,20170601,39.6686747,4101,6357,1670498.489,-82338.52277,64,0.755009055,343.4105225,291.2310181,100615.6719,0.002723373,223.0370941,-1.61304e-05,72.54686737,-0.21562539,-0.723563671,0.762653053,4528,816
2218A,银州路东段,铁岭,123.8489,42.2864,20170601,32.58333333,1814,8064,2128994.767,1800465.997,86,1.084157944,16.26812744,280.1493225,100595.5156,0.001091814,295.0588379,-1.08059e-05,52.2274971,0.303699523,1.040752172,0.528179288,2893,879
1476A,兰炼宾馆,兰州,103.631,36.1031,20170601,61.04073034,2804,4829,711435.2631,763788.8499,1562,0.928310513,268.746582,282.6821289,81375.45313,0.000688222,241.6933136,-7.33991e-06,47.07268906,-0.928087473,0.020348558,0.305758923,2044,404
2285A,市第四中学,铜陵,117.8178,30.9414,20170601,52.25837989,3629,7099,2009153.015,346414.2246,29,0.941267431,285.0881042,289.1896973,101191.9453,0.002054569,216.7509918,-2.27234e-05,70.55384064,-0.908832014,-0.244966686,0.756169438,3334,942
1490A,监测站,乌鲁木齐,87.5801,43.8303,20170601,54.90373563,1567,2261,-540731.4845,1695138.952,816,0.606189966,7.47672987,282.2767029,90909.625,0.000442726,153.6481018,-1.03638e-05,48.61283875,0.078877479,0.60103631,0.261584401,2179,414
2921A,树下王站,绍兴,120.7789,30.0033,20170601,43.33379888,3780,7573,2293195.188,302947.3186,12,0.853857815,271.0571594,289.8463135,100897.4766,0.002572465,272.3495178,-1.54364e-05,72.69501495,-0.853713214,-0.015713606,0.661064863,4267,1361
1079A,路桥公司,邢台,114.5331,37.0964,20170601,77.58595989,2645,6573,1577772.38,1010255.645,63,0.722749174,46.28990555,286.741272,100519.875,0.000811932,167.5183258,-8.96764e-06,51.57893372,0.522424042,0.49943918,0.792474091,3384,65
1093A,糖厂,呼和浩特,111.608,40.8144,20170601,45.11331445,2050,6105,1267790.187,1413085.414,1053,0.743772686,164.3409271,280.040802,88076.39063,0.00070384,174.5379944,-4.60524e-06,43.45690536,0.200814128,-0.716150463,0.396783859,1946,78
1111A,星海三站,大连,121.5638889,38.885,20170601,28.35180055,2358,7698,2075594.463,1352631.914,38,0.244522199,111.6177979,284.4536133,101045.5469,0.000425188,513.6858521,-0.000101538,61.83102036,0.227328181,-0.0900722,0.650078833,2716,94
1860A,未央路,张家界,110.5594,29.3547,20170601,28.22005571,3883,5937,1406411.417,34977.92136,437,0.77869916,282.1037598,288.2032776,94872.96094,0.002578454,185.8214417,-7.34357e-06,77.76854706,-0.761396885,-0.163239747,0.729782701,5864,673
1764A,东明,本溪,123.7669,41.2864,20170601,26.47777778,1974,8051,2158414.03,1681593.864,191,0.869398117,206.2238617,278.9196472,98686.57031,0.001140165,221.9816895,-6.95975e-06,63.02005005,-0.38415876,0.779919982,0.541263163,1919,586
2579A,民中,六盘水,104.8475,26.5894,20170601,30.62569832,4326,5024,924983.3819,-356391.6387,1823,0.792980731,236.6195068,284.7252197,80464.52344,0.002601658,233.8719177,-6.59327e-06,83.28025055,-0.662154078,0.436314583,0.538946688,3374,1205
2411A,第三人民医院　,商丘,115.6578,34.402,20170601,56.04761905,3076,6753,1735323.42,710121.1449,49,0.887030482,233.7945862,287.9189148,101102.0078,0.001319994,200.3342285,-1.10397e-05,60.72004318,-0.715734303,0.52397275,0.845039904,2358,1058
1166A,苏州工业园区,苏州,120.669,31.3097,20170601,39.40363128,3571,7555,2243447.141,450737.4049,5,1.345791817,270.2224426,289.0808411,101616.1172,0.001774447,319.516571,-4.18109e-05,72.46854401,-1.345781922,-0.005162416,0.711461306,2826,147
1800A,慈湖二小,马鞍山,118.5106,31.7506,20170601,49.01256983,3500,7210,2046104.694,454664.0869,10,1.156383038,268.999176,288.5747375,101481.2656,0.002197216,238.6899872,-2.39665e-05,68.50488281,-1.156205773,0.020251423,0.761320829,2924,620
1283A,五四北路,福州,119.299,26.1092,20170601,26.66615854,4403,7336,2276792.412,-176089.9945,15,0.672390699,312.1690674,291.5812378,99842.45313,0.002802417,267.8289185,-2.19215e-05,84.69174957,-0.498384506,-0.451355845,0.465857327,3229,238
1462A,高压开关厂,西安,108.882,34.2749,20170601,66.98873239,3096,5669,1173021.442,594714.3148,399,0.271153122,193.2610321,286.6852722,94717.76563,0.001240007,89.31004333,-7.10064e-06,63.45855713,-0.062197357,0.263923287,0.610731244,2303,390
1098A,森林路,沈阳,123.6836,41.9339,20170601,26.52638889,1871,8037,2129556.98,1755592.0,125,0.876135111,0.49298948,280.3681641,100458.2188,0.001152093,283.7866211,-9.02257e-06,52.2916832,0.007538188,0.876102686,0.544104815,2857,83
1845A,市委党校,荆州,112.2068,30.3515,20170601,51.6056338,3724,6201,1533238.088,176396.0278,35,0.719484329,306.0953979,289.8277893,101111.4531,0.002264848,239.3492889,-2.78325e-05,68.91123962,-0.581397712,-0.423832983,0.823110342,2803,661
2209A,农业园区,阜新,121.6972,42.0503,20170601,24.87606838,1852,7720,1982046.965,1727708.862,156,0.807763219,59.86421204,280.2131042,99053.88281,0.000847968,318.7912903,-5.55576e-06,51.36547089,0.698571801,0.405559868,0.515846491,2882,870
1180A,新城区,徐州,117.256,34.2153,20170601,58.55555556,3106,7009,1872410.371,717498.8861,37,1.067156792,241.0869598,287.526001,101319.5625,0.00166982,209.2604218,-1.35686e-05,62.99317169,-0.934124291,0.515980005,0.793101192,3533,156
1775A,江北,吉林,126.5786,43.8947,20170601,28.36768802,1557,8501,2261564.378,2049176.139,190,1.054775834,24.77671051,276.2477112,98243.07813,0.001298738,222.9978027,-1.03935e-05,66.21914673,0.442026615,0.95768714,0.46543923,1182,596
1273A,董铺水库,合肥,117.16,31.9051,20170601,47.26264045,3475,6994,1926493.323,445343.0046,29,1.003379941,255.8636169,288.5348511,101172.875,0.002217068,232.9623871,-1.60269e-05,67.75965881,-0.972985148,0.245094314,0.778822541,4122,229
1029A,职工医院,石家庄,114.4548,38.0513,20170601,68.18472222,2492,6561,1548715.837,1122720.941,80,0.714270592,46.39890671,285.8171692,100146.5078,0.001021511,123.3626328,-8.71733e-06,52.38289642,0.517233551,0.492597163,0.809952021,2249,19
2677A,教育园区,吴忠,106.1532,37.9648,20170601,36.54507042,2506,5232,892960.8555,1009116.469,1130,0.269492298,17.94690323,285.1565552,88356.99219,0.000373558,276.1674194,-9.36624e-06,37.92724991,0.083037809,0.25638023,0.388421357,3058,1291
2243A,气象局　,鸡西,130.9298,45.2978,20170601,22.03703704,1332,9197,2498577.961,2316542.537,244,1.252220869,79.46941376,274.7644043,97731.46875,0.000964059,296.017395,-5.7702e-06,69.06118011,1.231120944,0.228906736,0.383184552,2506,904
1149A,浦东新区监测站,上海,121.533,31.2284,20170601,39.66384181,3584,7693,2319735.652,461434.619,8,1.100723267,262.7807617,288.9947205,101648.5391,0.001971258,370.8068542,-3.59229e-05,75.64474487,-1.091991425,0.138370633,0.645522475,2402,130
1038A,物资局,唐山,118.1853,39.6407,20170601,50.95949721,2238,7158,1795363.493,1375242.712,35,0.666424394,193.2201538,284.0407715,101410.5703,0.000737926,183.8976593,-8.82957e-06,51.91472244,-0.152402371,0.648764193,0.797506988,2512,28
1846A,科融环保,荆州,112.2887,30.3055,20170601,55.24782609,3731,6214,1541418.772,172287.7827,31,0.721692085,304.7090149,289.8115845,101230.0234,0.002298012,237.248764,-2.62185e-05,69.13858032,-0.593296587,-0.410899788,0.828235984,2674,662
2394A,油田运输公司,濮阳,115.0628,35.7672,20170601,57.94301994,2857,6658,1652623.424,861182.6019,51,0.79353267,211.0608826,287.787384,101060.7109,0.000789008,205.6059265,-1.08852e-05,54.86082077,-0.409411103,0.679762185,0.861858964,2218,1042
2286A,市公路局,铜陵,117.8078,30.9222,20170601,57.00139276,3633,7097,2008815.039,343981.7322,58,0.928633273,284.4909058,289.1851196,101075.5625,0.002065281,215.480423,-2.24227e-05,70.80625916,-0.899103463,-0.232320115,0.748245478,3299,943
1880A,高新区自来水公司,绵阳,104.6717,31.4656,20170601,48.23743017,3546,4995,851779.8545,216595.2575,478,0.545692921,340.8397217,290.2144165,94994.57813,0.000933485,134.899231,-9.93651e-06,65.13310242,-0.1791455,-0.515448987,0.740613937,3164,688
2246A,东山纸板厂,鹤岗,130.3172,47.3489,20170601,18.87857143,1004,9099,2369414.807,2536433.755,167,1.22297585,104.84832,273.719696,99182.07031,0.000909141,222.5641327,-6.03087e-06,66.99106598,1.182154655,-0.313337326,0.34131664,2190,907
2298A,老年大学,滁州,118.3094,32.3153,20170601,50.79166667,3410,7177,2013043.51,516181.1301,22,0.964519441,263.3778992,287.9793091,101177.4844,0.002480015,241.1250458,-1.46289e-05,69.19974518,-0.958079696,0.111270048,0.777175069,3064,955
1809A,石化总厂,九江,116.0726,29.7534,20170601,44.47493036,3820,6820,1888034.969,173936.4542,27,1.077277899,305.2729797,290.1976624,101153.9297,0.003084939,247.3973999,-4.068e-05,73.95304108,-0.879540682,-0.622041643,0.698738039,1968,629
2176A,禹都开发区,运城,111.0233,35.0611,20170601,63.99438202,2970,6012,1337066.675,715802.8353,367,1.192007899,244.7565613,287.2636719,97178.64063,0.000975219,161.3008423,-1.13962e-05,59.02674866,-1.078158855,0.508385897,0.619306922,2364,842
1330A,沌口新区,武汉,114.1525,30.4753,20170601,47.02089136,3704,6512,1701670.835,222910.6105,29,1.077702165,302.203949,290.0886536,101220.2578,0.002574136,214.2940826,-3.42269e-05,68.67253876,-0.911940634,-0.574287534,0.812991083,2110,277
2014A,江东,义乌,120.091,29.305,20170601,32.27683616,3891,7463,2254295.032,206896.5633,75,0.737074077,299.9815674,290.2668152,99862.5625,0.002012749,257.0974121,-1.11376e-05,71.07883453,-0.63846606,-0.368292391,0.624889493,2909,812
2536A,牛耳桥,乐山,103.7627,29.5844,20170601,48.26880223,3847,4850,791898.0755,-14025.6964,373,0.887860894,115.5301208,291.2165222,96529.96875,0.000989047,135.7652283,-1.24637e-05,70.75178528,0.801191866,-0.382607639,0.894410133,3758,1168
1065A,文化中心,承德,117.8184,40.9733,20170601,26.00983146,2024,7099,1730033.055,1526887.49,447,0.533103108,79.24391174,280.9381714,95493.07813,0.001018807,217.4887848,-3.99259e-06,50.00828552,0.523732722,0.099513598,0.620603979,3845,52
1794A,监测站,芜湖,118.3528,31.3508,20170601,46.87988827,3564,7184,2043879.192,404959.6551,8,1.18000567,275.0214233,289.0262146,101545.1563,0.002046067,228.2472839,-2.3132e-05,68.5449295,-1.175481796,-0.103226781,0.757713377,2066,614
2314A,池州学院,池州,117.4697,30.6617,20170601,48.46561605,3674,7043,1986599.79,306880.2837,19,0.974260688,295.7675171,289.4548645,101027.0859,0.002293654,224.8204651,-2.3483e-05,72.18147278,-0.87741065,-0.423478991,0.741527617,3598,969
2656A,监测站,平凉,106.6692,35.5461,20170601,25.28169014,2893,5315,968827.2082,722734.7438,1386,0.829016864,70.96283722,280.7131042,83806.30469,0.001241517,195.05159,-6.02548e-06,61.51247406,0.783665717,0.270438462,0.430801153,3054,1272
2369A,市环境监测站,吉安,114.99,27.1311,20170601,51.25626741,4239,6646,1855023.345,-149819.2074,58,0.846888781,323.8673706,292.3458557,100613.7188,0.002039758,256.2553406,-1.71119e-05,70.82741547,-0.4994241,-0.683956265,0.629048526,3658,1019
2069A,市运管处,周口,114.6546,33.5979,20170601,50.46760563,3204,6593,1671442.824,597951.633,49,0.742731571,236.9082794,288.1467896,101082.1563,0.001565866,198.5998993,-1.23796e-05,62.65990829,-0.622246921,0.40553543,0.873512506,2865,823
2487A,电视发射台,娄底,111.9975,27.725,20170601,26.00668896,4144,6168,1568318.224,-133274.8811,132,0.782859921,337.2138977,290.4688721,99571.64063,0.002302269,229.7408752,-1.21832e-05,74.29649353,-0.30325368,-0.721738756,0.781769812,2920,1123
1512A,江麓,湘潭,112.8937,27.8728,20170601,45.97638889,4120,6311,1646960.369,-101463.2338,50,0.949528694,355.7221985,291.0793152,100752.4297,0.002659036,241.0134583,-1.72202e-05,72.54418182,-0.070912927,-0.946877003,0.786983848,2914,422
2553A,大兴526台,雅安,103.009,30.0125,20170601,50.64428571,3778,4729,719803.3513,30837.25579,632,0.281379521,113.6614151,287.6148071,89989.96094,0.001795279,90.75141144,-3.90038e-06,76.64189148,0.257731408,-0.112911284,0.660827518,4990,1182
2356A,新钢氧气厂,新余,114.9119,27.8042,20170601,46.45056497,4131,6634,1831927.671,-73673.36069,71,0.773409784,307.6126099,291.7469788,100876.375,0.00296806,229.0547791,-1.53179e-05,71.8875885,-0.612691522,-0.471987039,0.659641027,2518,1006
1601A,临江后街,丹东,124.4256,40.1503,20170601,21.48735955,2156,8156,2247304.215,1563639.559,6,0.410326779,337.5914917,280.6713562,100941.0625,0.001084722,234.662262,-1.28932e-05,63.44303894,-0.156450614,-0.379330009,0.57869184,2537,449
2902A,北辰小学,广安,106.6351,30.4865,20170601,37.19359331,3702,5310,1037749.261,119386.489,280,0.966715097,315.5208435,291.2397156,97742.94531,0.001614881,116.2177811,-8.66092e-06,75.77349091,-0.677376926,-0.689709067,0.870176435,3875,1354
1840A,白龙岗,宜昌,111.2992,30.698,20170601,59.28888889,3668,6056,1446316.288,203297.0848,99,0.295909792,346.3167725,289.5414734,98532.79688,0.002170318,121.173378,-8.1363e-06,73.27246857,-0.070023194,-0.287505388,0.776303887,2664,656
2165A,白马寺,晋城,112.8453,35.546,20170601,54.41501416,2893,6303,1476933.691,799612.6792,848,0.510300338,242.1949158,283.9302368,92026.82031,0.000999556,173.6820679,-5.97518e-06,59.94342804,-0.451373279,0.238051742,0.642809808,3510,832
1466A,市人民体育场,西安,108.954,34.2713,20170601,69.81284916,3097,5681,1179125.945,595146.6918,409,0.433108836,202.772583,286.6636353,94733.16406,0.001253752,89.80882263,-7.16216e-06,63.31423187,-0.167640671,0.399349302,0.609525681,1858,394
1039A,陶瓷公司,唐山,118.2185,39.6679,20170601,49.28212291,2233,7163,1797109.869,1379074.404,31,0.631409109,194.1865387,283.9333801,101356.7422,0.000743904,181.6531982,-8.92103e-06,52.270298,-0.154741004,0.612154126,0.787240982,2393,29
2054A,平桥分局,信阳,114.1044,32.1078,20170601,50.29519774,3443,6505,1659795.998,413303.0189,84,0.342128307,245.9837952,288.0976257,100634.9063,0.001848727,215.9733887,-1.50819e-05,71.77636719,-0.312505662,0.139255166,0.838692904,3092,817
1133A,太平宏伟公园,哈尔滨,126.689,45.7733,20170601,34.81805556,1256,8518,2196219.656,2270099.222,127,1.234857917,46.91785049,275.8401794,99835.10938,0.000724032,211.1270752,-7.18747e-06,61.61277008,0.901889026,0.843486905,0.407940894,1376,114
1392A,河南岸金山湖子站,惠州,114.4183,23.0528,20170601,27.9902507,4892,6555,1895995.701,-626516.3776,21,0.647749364,271.894989,294.495575,100649.5625,0.002983528,211.5156708,-1.51594e-05,77.96212769,-0.647396147,-0.021388927,0.489900202,4704,330
1974A,蓬莱博物馆,蓬莱,120.773,37.809,20170601,28.17908309,2531,7572,2049186.289,1209745.122,19,0.8466748,0.03956585,285.5157471,101169.8203,0.000693343,468.5272217,-7.63137e-05,61.16248322,0.000536061,0.846674621,0.637932777,2151,774
2067A,市环境监测站,周口,114.6613,33.6128,20170601,51.95903955,3202,6594,1671648.828,599821.676,49,0.744743466,236.741806,288.1369019,101074.7188,0.001573164,198.3740997,-1.23834e-05,62.62329865,-0.622748315,0.408445001,0.877117038,2463,821
1066A,离宫,承德,117.9384,41.0112,20170601,27.04519774,2018,7118,1737894.456,1533510.946,384,0.231628314,84.36236572,280.8522034,94833.22656,0.000936639,221.4330139,-4.24276e-06,49.28611755,0.230506957,0.022764392,0.589861631,4430,53
1092A,兴松小区,呼和浩特,111.659,40.8452,20170601,36.20612813,2045,6113,1271011.17,1417452.957,1065,0.759677112,164.9285889,279.759613,87643.83594,0.000700155,180.3152008,-4.55001e-06,43.81771469,0.197595403,-0.733529389,0.405095398,1987,77
1464A,纺织城,西安,109.06,34.2572,20170601,67.61647727,3099,5698,1188264.314,594742.0833,451,0.710011542,204.9296875,286.343689,94362.47656,0.001287108,88.92196655,-7.11889e-06,63.5719223,-0.299265772,0.643860579,0.616715193,2745,392
2862A,22中南校区,石家庄,114.5480556,38.03777778,20170601,68.15266106,2494,6576,1556366.493,1122582.628,74,0.648570836,28.2766037,286.0995483,100571.7422,0.000978954,133.3346863,-9.0693e-06,50.93685532,0.307238311,0.571181893,0.826391816,2519,1332
2477A,零陵南津渡,永州,111.6217,26.2081,20170601,37.14595376,4387,6107,1563982.085,-314873.7567,117,0.674932241,299.8596497,292.01651,100026.3359,0.00150971,252.7855377,-1.1972e-05,72.28494263,-0.58535409,-0.335997254,0.726286948,4815,1113
2602A,普洱第二中学,普洱,100.9817,22.8322,20170601,19.05694444,4927,4405,589056.1552,-822002.1298,1363,0.919576406,204.0083618,291.2594299,85982.71094,0.003569263,123.6655426,-6.45679e-06,76.68824768,-0.374137729,0.840024829,0.284693629,5233,1223
2462A,市水土所,邵阳,111.5239,27.3033,20170601,42.53539823,4212,6092,1533349.656,-189682.1249,245,0.803620279,304.7120667,290.281311,98828.25,0.002232966,230.6237335,-1.08742e-05,75.85951996,-0.660624623,-0.457581401,0.743639529,5292,1098
1331A,汉口江滩,武汉,114.3008,30.5947,20170601,45.17222222,3685,6536,1711902.909,239433.4756,26,1.108243346,301.6933899,290.0739746,101310.75,0.00254495,211.1082764,-3.32292e-05,68.74343109,-0.943009436,-0.582182646,0.803780437,1620,278
1334A,沉湖七壕,武汉,113.8531,30.2997,20170601,43.25073314,3732,6464,1679384.985,197249.3631,21,0.932408869,305.3052673,289.9713745,101366.4609,0.002586212,204.6863098,-2.28903e-05,69.29116058,-0.760959208,-0.538820326,0.807403505,2382,280
2585A,铜仁卫校,铜仁地区,109.1916,27.7297,20170601,23.85416667,4143,5719,1311327.91,-173846.5597,308,0.939418554,306.1422729,289.3128052,96037.00781,0.002274304,232.4941559,-1.02374e-05,77.46893311,-0.758668184,-0.554012418,0.731624246,3832,1207
2010A,市政府,临安,119.7183,30.2366,20170601,32.08100559,3742,7403,2193985.805,305560.443,44,0.67244333,320.7337952,289.1682434,99763.38281,0.002783078,206.3201447,-1.01556e-05,75.56233978,-0.425643414,-0.520583987,0.699158251,2634,809
1616A,技术学院,莱芜,117.6789,36.2289,20170601,49.29411765,2783,7077,1851721.157,962403.7776,214,0.689459801,227.0018158,285.3067017,99096.44531,0.001008372,196.602356,-8.30647e-06,63.03105927,-0.50424248,0.470206648,0.764710188,2505,463
1115A,旅顺,大连,121.2588889,38.80805556,20170601,26.59773371,2371,7649,2054810.717,1337188.296,16,0.055798065,60.41362381,284.6854553,101431.5781,0.000366197,498.5209656,-8.64496e-05,61.68934631,0.048521832,0.027550969,0.638872385,3905,98
1018A,前进路,天津,117.202,39.0927,20170601,50.48033708,2325,7000,1735514.748,1292556.453,7,1.049154043,190.5059357,285.3424377,101628.2266,0.000783038,200.5014801,-2.15297e-05,49.92195129,-0.191293985,1.031567097,0.86217165,2368,14
1223A,滨江,杭州,120.211,30.21,20170601,38.86072423,3746,7482,2237566.416,313608.5252,10,0.879980564,300.7580566,289.8270569,101484.2578,0.002470908,243.5818634,-2.14523e-05,71.52324677,-0.756225705,-0.449987262,0.688420773,2181,190
1215A,盐城电厂,盐城,120.118,33.4022,20170601,41.83611111,3236,7467,2132971.177,680817.9139,2,0.971559227,254.0597534,287.111084,101749.8984,0.001975715,250.6370239,-1.09549e-05,69.5666275,-0.934191287,0.266859472,0.69275707,3148,184
2005A,金坛市自来水公司,金坛,119.579,31.737,20170601,43.87361111,3502,7381,2137585.045,475831.9158,7,1.140962839,262.5109863,288.556366,101615.8828,0.001997268,262.714447,-3.03991e-05,69.50246429,-1.131224036,0.148756579,0.757739007,2625,804
1034A,人民会堂,石家庄,114.5214,38.0524,20170601,75.23955432,2492,6571,1553921.372,1123903.548,78,0.650838554,34.59516525,286.027832,100525.2734,0.000993834,128.5818024,-8.92902e-06,51.25087738,0.36951983,0.535766661,0.82115227,2190,24
2187A,市林业局,乌海,106.8089,39.6969,20170601,36.94972067,2229,5337,919926.2561,1224635.274,1089,0.572850943,181.8816528,284.4541931,88340.05469,0.000255678,352.4972534,-5.91208e-06,33.28762817,-0.018809484,0.572542071,0.378238142,2341,851
2627A,日喀则鸿达公司,日喀则地区,88.8931,29.2365,20170601,7.04398827,3902,2471,-554828.8507,-73374.42296,3852,0.850846112,182.5454559,281.3746643,62114.77344,0.00087887,644.1260986,-6.85687e-06,31.08370018,-0.037786577,0.85000664,0.09649995,2296,1246
1842A,点军区,宜昌,111.268,30.696,20170601,53.72980501,3669,6051,1443612.383,202603.2384,66,0.245019481,347.559021,289.3479614,98002.59375,0.002270184,116.4564972,-7.68385e-06,73.56494904,-0.052806057,-0.239261493,0.748569667,4304,658
2484A,市四医院,怀化,109.9792,27.5342,20170601,39.37083333,4175,5845,1387051.071,-185808.7649,242,0.640944958,334.614502,290.0126038,96884.32031,0.002468085,192.8009949,-1.07342e-05,74.45547485,-0.274823219,-0.579035997,0.711530209,2719,1120
1323A,河医大,郑州,113.6356,34.7538,20170601,63.08240223,3019,6430,1559608.928,717793.6263,107,0.650875986,207.8070679,288.1161194,100237.3828,0.00101989,215.631958,-1.23793e-05,58.86881256,-0.303622603,0.575719416,0.839287639,1995,270
2574A,凉山州政府,凉山州,102.2689,27.8847,20170601,22.76470588,4119,4611,672034.5081,-225568.9816,1523,0.330293238,232.4882965,289.5105896,82352.80469,0.001930135,194.1278076,-3.33858e-06,62.36984253,-0.261992723,0.201130405,0.282879651,3967,1200
2360A,体育馆,鹰潭,117.0222,28.2264,20170601,34.38687151,4064,6972,2011906.169,16288.28314,40,0.810566664,316.0727234,291.730011,100755.4453,0.002411164,175.9455719,-1.43734e-05,70.96355438,-0.56236738,-0.583747625,0.609263718,3057,1010
2475A,市审计局,郴州,113.0383,25.8071,20170601,32.6800554,4451,6334,1704398.926,-337510.4259,192,0.240424827,333.8120117,291.1817932,98075.71094,0.002024018,219.5547943,-1.09133e-05,76.63010406,-0.10612078,-0.21573706,0.661989987,2535,1111
1932A,三陆医院,宝鸡,107.1906,34.3672,20170601,50.35434174,3081,5398,1029508.115,586781.8682,596,0.305412918,13.86052036,285.8243103,91975.97656,0.001493757,105.6873093,-3.97722e-06,66.20861816,0.073162362,0.296520352,0.529422343,2810,736
1980A,山东成山轮胎公司,荣成,122.41,37.161,20170601,18.70396601,2634,7834,2197722.335,1169290.105,27,0.750730753,81.57907104,284.5595398,101011.3281,0.000867269,413.0947571,-4.38782e-05,68.79725647,0.742632449,0.109971464,0.569379807,2367,780
1109A,甘井子,大连,121.6119444,38.97388889,20170601,30.28830084,2344,7706,2076360.891,1364078.986,23,0.200011507,115.6109848,284.403717,101277.9688,0.000439464,492.7960205,-9.28801e-05,61.71054459,0.180365443,-0.086445987,0.628965855,2263,92
1280A,鼓山,福州,119.389,26.0542,20170601,24.21186441,4411,7350,2286633.379,-180241.4635,350,0.856737316,324.4451599,291.8222656,99741.82813,0.002665866,324.4317017,-3.70487e-05,83.3534317,-0.498229057,-0.696969628,0.415077567,5913,236
2647A,豫源饭店,白银,104.1731,36.5458,20170601,42.94827586,2733,4916,750994.7195,821225.1675,1715,1.355695367,303.5161133,282.9290466,81715.86719,0.000577497,367.8388062,-6.98244e-06,44.23310471,-1.130332232,-0.748504579,0.314399362,1764,1263
1689A,高岭,茂名,110.8592,21.6828,20170601,29.20142857,5111,5985,1577195.653,-844612.331,16,1.385302186,254.2406921,295.6589355,101002.3594,0.003173307,258.4579773,-1.73949e-05,80.11118317,-1.333215833,0.376294553,0.473231673,4321,522
2483A,河西地税局,怀化,109.9453,27.5444,20170601,36.36023055,4173,5839,1383754.268,-185099.5222,238,0.65212518,337.4970703,290.1321716,97366.92969,0.002540052,199.850769,-1.102e-05,74.59181213,-0.249636829,-0.602452219,0.718379259,3245,1119
2454A,湖北民院,恩施州,109.5039,30.2989,20170601,41.26966292,3732,5769,1295229.587,131312.6263,456,0.183219969,16.68285751,288.5693054,92793.67969,0.00296109,106.9549866,-3.53988e-06,75.58926392,0.052596148,0.17550841,0.661848068,3550,1090
2618A,州监测站,怒江州,98.8601,25.8567,20170601,19.85755814,4443,4066,366466.9035,-481398.4167,1044,0.494122148,95.02560425,287.450531,80397.75,0.003521879,36.58598328,-9.08586e-07,77.62693787,0.492224693,-0.043261465,0.214865834,5357,1238
2502A,市环保站,钦州,108.6236,21.9667,20170601,28.71488764,5065,5628,1351905.71,-845706.4135,10,0.263568163,304.5966797,294.9052734,100714.7266,0.002841118,276.7215271,-2.36491e-05,78.1467514,-0.216970816,-0.149639025,0.512249649,3318,1135
2452A,市林业局,随州,113.3833,31.6908,20170601,49.01955307,3510,6389,1607172.389,352335.6562,85,0.661326408,269.8027344,288.4047546,100250.1016,0.001895521,208.8917847,-1.43587e-05,71.05017853,-0.661322355,0.002307559,0.811189592,3807,1088
1484A,贺兰山马莲口,银川,105.9512,38.6016,20170601,32.96111111,2404,5200,868240.432,1084277.167,1329,0.716346323,143.5142212,281.2161255,82920.0,0.00044568,203.4988098,-5.87599e-06,40.41498184,0.425998718,-0.575914204,0.351496994,2585,411
1917A,烟厂办公区,曲靖,103.8,25.5364,20170601,34.69859155,4494,4856,837893.0195,-488483.0636,1877,1.759679437,195.3168945,286.8308411,80416.26563,0.002461457,361.0354614,-1.45502e-05,75.19747925,-0.464819491,1.697178483,0.337081969,2663,721
2211A,玉龙新城,阜新,121.6592,42.0486,20170601,23.12188366,1852,7713,1979351.133,1726742.503,157,0.768486083,58.30780029,280.3286438,99347.92969,0.000842473,317.6134338,-5.452e-06,51.42351151,0.653879344,0.403748274,0.512108445,2700,872
2508A,荷城子站,贵港,109.5683,23.1036,20170601,34.63714286,4884,5779,1425638.33,-702728.465,46,0.451461732,294.0062256,294.2759399,100055.75,0.003221848,231.5661316,-1.67761e-05,77.59007263,-0.412421674,-0.183646545,0.555551529,3513,1140
1326A,汉阳月湖,武汉,114.2511,30.5514,20170601,43.4494382,3692,6528,1708555.233,233510.4901,31,1.118394494,301.5838928,290.1111145,101281.3594,0.002537019,214.9947205,-3.54378e-05,68.53266907,-0.952768087,-0.585695565,0.801629007,2720,273
3002A,行政中心,常州,119.9736,31.8108,20170601,42.58333333,3490,7444,2168947.627,493025.0536,4,1.121845841,261.1388855,288.600708,101688.1328,0.001979715,278.7095947,-2.51468e-05,69.74658966,-1.108448982,0.172855139,0.766275406,2865,1372
2203A,市政府,锡林郭勒盟,116.0781,43.9311,20170601,17.65738162,1551,6820,1523151.087,1851062.337,992,0.79381597,67.57935333,276.7290955,89322.67188,0.000284394,319.6823425,-4.90322e-06,45.40840912,0.733799815,0.302789748,0.312423199,1721,864
1400A,七星岩子站,肇庆,112.4722,23.0786,20170601,38.267507,4888,6244,1707572.738,-659275.949,9,0.71356982,273.1748047,294.5643616,99983.96094,0.002943652,219.9272003,-1.55717e-05,76.19499969,-0.712476552,-0.039484859,0.553430438,2650,338
1625A,区政府,聊城,115.9848,36.4372,20170601,59.31179775,2750,6806,1710247.662,956308.2363,34,0.990914941,220.6962585,287.0934448,101257.5391,0.000993995,200.2789154,-1.18998e-05,53.02191925,-0.646109343,0.751302302,0.851911545,2943,470
1921A,中医学院,咸阳,108.7369,34.3164,20170601,66.23809524,3089,5646,1160144.182,597942.7275,383,0.36326772,164.9398956,286.6364746,94605.41406,0.00114498,93.62757111,-7.05726e-06,63.24367142,0.094418459,-0.350782841,0.613609433,2709,725
2599A,丽江古城,丽江,100.2497,26.8802,20170601,14.76734104,4279,4288,491877.194,-355506.2786,2428,0.467945695,44.51752472,285.2825623,74317.75781,0.00256236,159.0809326,-4.54803e-06,64.42049408,0.328081906,0.333669662,0.177616209,3969,1220
2497A,龙圩,梧州,111.2353,23.415,20170601,48.28028169,4834,6046,1581438.563,-641663.7112,32,0.923986971,291.6904907,294.5239868,100337.1953,0.003047402,180.6576233,-1.66932e-05,77.21131134,-0.858582854,-0.341449052,0.543387771,3638,1132
2698A,巡警大队,喀什地区,75.9828,39.5371,20170601,98.80446927,2254,405,-1479526.882,1293428.194,1370,0.099880852,141.0090332,287.869812,85787.76563,0.000299375,398.4848328,-1.8474e-05,33.57466125,0.062850446,-0.077627353,0.235154659,1580,1312
1007A,海淀区万柳,北京,116.315,39.9934,20170601,50.41736695,2181,6858,1643658.083,1384435.679,52,0.532783926,107.7722931,284.2668762,100620.9141,0.000982214,117.6309509,-5.88151e-06,47.84044647,0.507366955,-0.162596047,0.841994762,3138,6
1186A,邗江监测站,扬州,119.389,32.3761,20170601,46.29279279,3400,7350,2102611.502,545861.5699,7,1.056780815,258.4685364,288.1877136,101642.8281,0.002580811,258.9778137,-2.04407e-05,69.28695679,-1.035441279,0.211298689,0.781100869,2671,161
2874A,益益乳业工业园,淮南,117.0411667,32.64600333,20170601,56.67590028,3357,6975,1896597.917,529533.8617,31,1.130840302,254.9455109,288.3117981,101213.9063,0.002164221,226.0154114,-2.29249e-05,66.19322205,-1.092017651,0.293763787,0.806144416,2470,1341
1788A,第一中学,牡丹江,129.6386,44.5462,20170601,19.77793296,1453,8990,2444419.662,2197814.352,248,0.991636574,53.80203247,275.4576721,97609.59375,0.000862419,279.5148621,-6.75001e-06,67.07952118,0.80021596,0.585659921,0.398675889,2559,608
1833A,规划设计院,平顶山,113.292,33.739,20170601,60.00560224,3182,6375,1553817.64,592244.35,92,0.207277298,194.2907104,287.9678955,100151.0703,0.001286896,212.2362976,-1.33991e-05,62.01827621,-0.051163293,0.20086363,0.854885578,2315,650
1915A,干田坝,遵义,106.9178,27.72,20170601,29.96944444,4145,5355,1102493.731,-202909.8848,854,1.181907177,270.2075806,288.1087646,90537.52344,0.001933497,243.307663,-1.06997e-05,78.14828491,-1.181899548,-0.004227233,0.723858595,3283,719
2006A,溧阳市东门子站,溧阳,119.46,31.4,20170601,41.13091922,3556,7362,2137372.556,434220.0226,21,1.202006817,261.5230103,288.8313599,101578.8984,0.001886343,251.8521729,-2.40883e-05,71.03779602,-1.188867688,0.177240431,0.75641042,3791,805
2590A,坪东大道,黔西南州,104.8811,25.0992,20170601,15.26544944,4564,5029,945622.833,-529450.6441,1283,0.861305594,254.327179,288.6146851,86431.32031,0.002539662,206.1522522,-1.17635e-05,79.12487793,-0.829273283,0.232708216,0.465371609,5435,1212
3035A,北滨河,兴安盟,122.0931,46.0707,20170601,14.30087209,1209,7783,1876604.018,2209679.408,267,1.328297019,104.9607849,277.0768738,97826.95313,0.000739863,295.70578,-6.42826e-06,51.74936295,1.283289909,-0.34284088,0.293536156,2263,1393
1684A,麻章区环保局,湛江,110.3316,21.2679,20170601,25.9859944,5177,5901,1532549.208,-899914.3795,30,1.630625367,259.1130371,295.7373657,100906.1563,0.003400438,302.6914978,-1.81729e-05,81.16773987,-1.601264477,0.308044285,0.46582824,3771,517
2615A,大理古城,大理州,100.2171,25.5811,20170601,15.15915493,4487,4283,496900.7183,-507613.3694,2017,0.972710192,35.46317673,287.3417969,77876.65625,0.002134419,273.9028931,-1.21537e-05,65.579216,0.564332187,0.792271614,0.233715877,5387,1235
1240A,太古小学,宁波,121.586,29.8633,20170601,34.40027701,3802,7702,2367705.231,306040.8677,6,0.526893854,254.9023438,290.0255432,101474.3125,0.003142621,387.1171265,-3.88283e-05,78.45108795,-0.508701921,0.137257025,0.593012929,2330,204
1496A,米东区环保局,乌鲁木齐,87.6444,43.962,20170601,64.43895349,1546,2271,-534847.5584,1710877.46,603,0.686324418,189.0024109,283.6722717,93380.15625,0.000354643,129.9361267,-9.48218e-06,46.73591995,-0.107390255,0.677870572,0.257363528,2046,419
1893A,九狮山,泸州,105.4306,28.9583,20170601,39.22050562,3947,5117,949971.4142,-73109.55815,322,0.549115181,334.5930786,291.9873962,97864.92188,0.00128253,148.4105988,-1.30472e-05,73.7434845,-0.235634133,-0.495987952,1.058444619,4853,700
1340A,伍家岭,长沙,112.9792,28.2597,20170601,46.94182825,4059,6325,1646434.86,-55134.31895,30,0.774442554,346.8496704,290.9231873,100887.8672,0.00262666,236.5379486,-1.73787e-05,72.50500488,-0.176255643,-0.7541188,0.799811006,2105,286
1374A,顺德苏岗,佛山,113.292,22.8054,20170601,28.99439776,4931,6375,1792622.345,-675687.2389,1,0.758004069,253.80867,295.2419739,101206.7031,0.003104889,257.3787537,-2.80492e-05,73.72279358,-0.727930486,0.211393848,0.552574277,3532,312
1134A,道外承德广场,哈尔滨,126.635,45.7667,20170601,32.13547486,1257,8510,2192863.497,2268125.751,130,1.230559111,48.00048447,275.8968506,99870.67188,0.000719989,211.1055908,-7.07197e-06,61.44894028,0.914470315,0.823419571,0.405226946,1120,115
1357A,洪湖,深圳,114.117,22.5625,20170601,28.08798883,4970,6507,1877886.018,-687774.2831,19,1.304514289,263.2776489,294.9215088,100363.0391,0.003090781,305.2449341,-4.35993e-05,79.73753357,-1.29553926,0.152760014,0.50228411,3030,302
2398A,开发区,许昌,113.7906,33.9953,20170601,52.43435754,3141,6454,1589798.006,630517.5944,69,0.394068658,227.0913391,288.0695801,100683.4141,0.001300904,207.1117401,-1.24434e-05,60.87358856,-0.288625121,0.268301398,0.861555219,3837,1045
1246A,袍江站,绍兴,120.598,30.0911,20170601,42.53221289,3766,7544,2274781.606,308825.0294,9,1.023867726,281.7053833,290.1461487,101472.6641,0.002433016,272.2157593,-2.43084e-05,71.48095703,-1.002586007,-0.207668841,0.66721648,2580,210
2404A,瓦房庄,南阳,112.5224,33.0122,20170601,56.43732591,3298,6252,1504646.982,494370.3041,129,0.785927296,301.8539734,288.0603027,99925.4375,0.001374437,203.5218048,-1.24222e-05,66.80957794,-0.667589545,-0.414735973,0.841745496,2142,1051
1811A,中信二小,洛阳,112.3628,34.6692,20170601,60.93277311,3033,6226,1456034.9,688227.0153,175,0.28727743,213.4764709,287.6018677,98713.89063,0.001070342,170.1418762,-1.0388e-05,60.11990356,-0.158456504,0.239624396,0.782719254,2822,631
2575A,长安,凉山州,102.2311,27.8953,20170601,24.98459384,4117,4605,668454.1938,-224580.2746,1540,0.2498153,234.3257599,289.8138123,82585.65625,0.001893445,187.1129608,-3.30195e-06,62.25106812,-0.202932328,0.145691991,0.280997127,4169,1201
2437A,赵家坝,鄂州,114.8989,30.3714,20170601,57.2733711,3721,6632,1769583.174,223970.6215,32,0.869527996,273.8360291,290.2193604,101020.7344,0.00251587,190.4274445,-3.00439e-05,69.54967499,-0.867582738,-0.058130682,0.765437305,3278,1075
1959A,监测站,寿光,118.746,36.881,20170601,52.24558824,2679,7247,1918272.628,1059709.41,21,0.866908371,201.2275848,286.0896606,101380.6875,0.000808298,224.8664093,-1.1834e-05,55.32573318,-0.313875586,0.80809176,0.745500684,2412,762
1344A,沙坪,长沙,112.9958,28.3586,20170601,47.99858757,4043,6327,1645810.518,-43370.10594,69,0.756720543,342.5375671,290.8086548,100645.4453,0.00267755,237.1007385,-1.7639e-05,72.65622711,-0.227137432,-0.721827209,0.780225039,4589,290
1701A,马南垌,阳江,111.9494,21.865,20170601,26.47058824,5082,6160,1680984.09,-805915.3515,7,1.071486354,284.2114258,295.1596985,100740.5781,0.003178635,269.3141479,-2.20186e-05,79.99268341,-1.038709164,-0.262994945,0.478349328,2977,531
1076A,市环保局,衡水,115.6906,37.739,20170601,61.18333333,2542,6758,1653612.94,1105688.704,23,1.175037026,207.3005524,286.637146,101386.4922,0.000766754,202.8595123,-1.18784e-05,49.38758087,-0.53892535,1.044160604,0.860339403,2074,62
