监测点编码,监测点名称,城市,经度,纬度,date,PM2_5,row_index,col_index,proj_x,proj_y,dem,w10,d10,t2m,sp,tp,blh,e,r,u10,v10,aod_sat,ndvi,id
1324A,岗李水库,郑州,113.6113,34.9162,20170601,59.82294618,2993,6426,1553909.984,736654.4282,93,0.781253636,226.5361328,288.2816772,100644.0781,0.000916769,202.9169159,-1.51515e-05,56.23620605,-0.567027569,0.537435532,0.823637009,4169,271
2514A,环保小区,贺州,111.5269,24.4175,20170601,44.24504249,4673,6092,1590118.278,-522334.3618,109,0.662247717,311.8299561,292.6168518,98898.57031,0.002735477,161.181778,-9.95038e-06,78.75340271,-0.493489087,-0.441633999,0.57084322,3440,1146
1033A,世纪公园,石家庄,114.5330556,38.01777778,20170601,68.20833333,2497,6573,1555668.21,1119961.435,72,0.688386977,32.56216049,286.0679932,100526.4922,0.000986558,132.7654266,-9.04454e-06,51.11368561,0.370489955,0.580184281,0.831135094,2525,23
1125A,甩湾子,长春,125.633,43.55,20170601,26.19602273,1612,8349,2209040.299,1987533.649,221,1.301642656,41.46250534,277.507019,98710.07813,0.001216662,256.736908,-8.99204e-06,61.24198151,0.86183548,0.975455284,0.457995176,3629,107
2292A,马山宾馆,安庆,117.0331111,30.51197222,20170601,50.17827298,3698,6973,1952620.958,280751.2496,23,1.292113066,321.2965393,289.6859436,101143.6641,0.002599486,248.3855591,-2.92812e-05,70.27024078,-0.808018565,-1.008296609,0.734222114,3151,949
2356A,新钢氧气厂,新余,114.9119,27.8042,20170601,46.45056497,4131,6634,1831927.671,-73673.36069,71,0.773409784,307.6126099,291.7469788,100876.375,0.00296806,229.0547791,-1.53179e-05,71.8875885,-0.612691522,-0.471987039,0.659641027,2518,1006
2574A,凉山州政府,凉山州,102.2689,27.8847,20170601,22.76470588,4119,4611,672034.5081,-225568.9816,1523,0.330293238,232.4882965,289.5105896,82352.80469,0.001930135,194.1278076,-3.33858e-06,62.36984253,-0.261992723,0.201130405,0.282879651,3967,1200
1819A,红庙街,安阳,114.32,36.086,20170601,72.47486034,2806,6539,1584706.697,886751.6842,80,0.593100548,50.14426422,287.6363831,100365.9766,0.000715504,188.6518555,-9.78449e-06,53.93691635,0.455290079,0.380104244,0.786001444,2371,638
2332A,南平市监测站,南平,118.1694,26.6383,20170601,22.0,4318,7155,2158481.672,-141374.5654,125,0.388703644,263.6714172,292.284668,97074.60938,0.002374068,148.9430695,-1.09323e-05,72.15641022,-0.386333078,0.042863488,0.439908713,4522,982
1614A,清源山,泉州,118.6108,24.9617,20170601,25.4,4586,7226,2245464.832,-321970.9439,218,1.455203533,320.4249573,293.5049133,100948.1484,0.002223735,390.7698669,-2.41708e-05,78.69562531,-0.927174568,-1.121590257,0.402218908,6910,462
2460A,市监测站,衡阳,112.6006,26.8919,20170601,42.72299169,4277,6264,1640841.329,-219923.3157,73,0.987432122,343.9099121,291.9283142,100630.0,0.002371561,261.2034607,-1.71295e-05,71.20933533,-0.273745358,-0.948728442,0.741418242,2361,1096
2919A,河北工业大学,廊坊,116.7022,39.5453,20170601,42.37047354,2253,6920,1685006.475,1337645.963,17,0.673909307,2.468224525,285.3144226,101502.4922,0.001057976,185.0716858,-8.94603e-06,46.44060898,0.029021183,0.673284113,0.902606845,2707,1359
2451A,市委党校,随州,113.3583,31.7275,20170601,50.34453782,3504,6385,1604197.261,356238.2333,70,0.705096662,270.2790527,288.396698,100247.0625,0.001855075,208.5019226,-1.39888e-05,70.9389801,-0.705088437,-0.003401343,0.817208886,2968,1087
2534A,内江日报社,内江,105.0406,29.5822,20170601,34.67746479,3847,5054,907033.8767,-3237.770484,332,1.068079472,330.5858765,291.5884399,97374.14063,0.001094099,159.7591095,-1.27344e-05,73.3921051,-0.524626017,-0.930355489,1.025977254,3692,1166
1918A,气象站,咸阳,108.7197,34.3956,20170601,60.59470752,3077,5643,1157372.659,607191.4518,463,1.179106951,176.9803619,286.9052429,95692.98438,0.000983151,105.4164658,-7.25398e-06,62.06290436,0.062220652,-1.177464128,0.618010998,4139,722
2224A,监测站,四平,124.3419,43.1747,20170601,44.17746479,1672,8143,2132306.475,1915167.6,163,1.25522995,24.29963684,278.6562195,99670.41406,0.001122397,290.611969,-9.13661e-06,55.59843826,0.516523421,1.144030452,0.488097876,2547,885
2561A,莲花山,资阳,104.6617,30.1366,20170601,33.4432133,3758,4994,866452.3266,58872.72104,377,0.800412118,298.3917847,291.2840271,96588.45313,0.000963947,193.3557129,-1.32982e-05,70.43460846,-0.70415926,-0.380551368,0.944391012,4313,1188
1808A,综合工业园,九江,115.9114,29.6039,20170601,43.8487395,3843,6794,1877560.323,153502.6408,55,0.73354423,307.9508057,289.6404724,99172.10938,0.003184199,224.3693085,-2.66592e-05,75.0455246,-0.578457832,-0.451080561,0.715380073,4203,628
1229A,朝晖五区,杭州,120.157,30.2897,20170601,50.10972222,3734,7473,2230477.998,321552.287,14,0.795664549,301.7076721,289.5498047,101255.6875,0.002588751,238.3686981,-1.90325e-05,72.02410889,-0.676930428,-0.418147385,0.70338881,2540,196
1441A,鉴湖路,贵阳,106.6243,26.6266,20170601,29.28045326,4320,5308,1090645.092,-333828.8501,1278,1.250990152,235.1604767,287.1951599,87522.69531,0.002084943,336.0944519,-1.19831e-05,82.99046326,-1.026736617,0.7146945,0.60201323,3587,370
1147A,静安监测站,上海,121.425,31.2261,20170601,41.84261838,3584,7676,2310595.562,458625.3112,10,1.076615334,263.7683411,288.881958,101648.6406,0.001991,345.5020142,-2.61719e-05,75.44211578,-1.070248723,0.116911449,0.653249979,2392,128
2558A,市环保局,巴中,106.7389,31.8711,20170601,32.18662953,3481,5326,1027269.358,284549.2122,415,0.867936313,327.6471558,289.3360291,95038.95313,0.001942131,117.5797577,-7.93222e-06,72.65765381,-0.464516103,-0.733170033,0.683009744,3659,1186
1096A,工大金川校区,呼和浩特,111.551,40.7866,20170601,47.61559889,2054,6096,1264049.635,1409003.431,1061,0.732593179,162.3698578,280.0075989,87935.23438,0.000709469,169.8008575,-4.65631e-06,43.23674393,0.221939936,-0.698165774,0.399120927,2130,81
2707A,小东沟,阿勒泰地区,88.1214,47.9047,20170601,9.540785498,915,2347,-466422.3514,2190396.594,1013,1.389637232,347.1051941,275.0678711,87218.55469,0.000794801,144.9333344,-9.32686e-06,59.67956543,-0.310230374,-1.354565859,0.137945384,2472,1320
1420A,唐家沱,重庆,106.65,29.6219,20170601,29.91086351,3841,5312,1051229.756,17483.26645,230,0.730116785,308.3588562,291.7987976,97791.60156,0.001445885,125.920311,-1.0069e-05,73.66951752,-0.572543085,-0.4530617,0.934265196,3792,354
2455A,州电力总公司,恩施州,109.4689,30.2819,20170601,41.53792135,3735,5763,1292423.426,128851.0725,438,0.18364206,29.92904091,288.4746704,92657.52344,0.003017882,107.6463394,-3.54332e-06,76.04735565,0.091621548,0.1591537,0.674036264,3585,1091
1244A,龙湾,温州,120.76,27.9747,20170601,30.625,4104,7570,2353809.713,70498.58135,16,1.17950809,321.7615356,290.9420166,100536.5547,0.002538435,329.4247131,-5.69942e-05,78.96625519,-0.730107486,-0.926381409,0.518862009,3556,208
2282A,监测站,淮北,116.8008,33.975,20170601,53.05138889,3144,6936,1841119.281,680683.2468,62,1.082316756,244.4416809,287.6891479,101234.4453,0.001803476,203.7582092,-1.24087e-05,63.0742836,-0.976392984,0.466975778,0.813908815,3487,939
1129A,岭北,哈尔滨,126.542,45.755,20170601,32.56527778,1259,8495,2187092.809,2264692.215,115,1.222982526,50.12163925,276.0447998,99902.85938,0.000711808,211.2042847,-6.9082e-06,61.15317154,0.93850559,0.784151495,0.401894063,2315,111
2577A,黄土坡,六盘水,104.83,26.5917,20170601,40.890625,4325,5021,923318.1396,-356287.7843,1844,0.799913704,236.9937744,284.627533,80194.19531,0.002607421,232.2611847,-6.52448e-06,83.34240723,-0.670803905,0.435756862,0.524475694,4175,1203
2256A,发电厂,佳木斯,130.3961,46.8267,20170601,31.34682081,1088,9111,2397035.374,2478450.47,78,1.299665689,55.59780884,274.7007751,100108.9375,0.00075057,218.2768707,-8.74929e-06,64.94659424,1.072322607,0.734339833,0.364023894,1857,917
2424A,陈家湾,黄石,115.0767,30.2028,20170601,54.00704225,3748,6660,1789245.231,207544.5506,78,0.897421241,250.8583374,290.3422241,101205.3047,0.002554582,190.3108521,-2.52694e-05,70.76367188,-0.847792745,0.294299781,0.750813127,4247,1063
1776A,江南公园,吉林,126.55,43.8256,20170601,32.43871866,1568,8496,2262258.937,2040484.807,195,1.088535547,25.58363914,276.1708069,97975.71094,0.001322086,223.7497253,-1.10763e-05,66.50260925,0.470047265,0.981817245,0.46669054,1638,597
2674A,玛沁县大武镇,果洛州,100.2561,34.4714,20170601,27.10110803,3065,4289,444139.8556,547277.7565,3771,0.699670613,47.98114014,269.5961304,61971.53906,0.001650528,127.5365067,-1.17158e-06,68.28144836,0.519790888,0.46835497,0.097499505,2289,1288
2191A,艺术职业学校,通辽,122.2532,43.6801,20170601,20.17887324,1591,7808,1967636.207,1930947.429,175,0.891622245,47.11419296,279.763855,99452.13281,0.000664869,327.8914185,-5.75062e-06,46.47060394,0.653287113,0.606799901,0.399967492,2616,855
1759A,大伙房水库,抚顺,124.0878,41.8864,20170601,24.38515406,1878,8102,2160385.598,1758854.659,112,0.830179811,182.088028,279.6804504,99977.20313,0.001157755,259.2373657,-1.0378e-05,58.36804199,-0.030246619,0.829628646,0.513459384,3465,581
1706A,档案局,潮州,116.6447,23.6706,20170601,26.14225352,4793,6911,2094426.362,-511407.434,18,0.73642844,273.4875793,294.2312317,101088.9766,0.002700813,204.9089661,-1.76273e-05,81.18883514,-0.735066712,-0.044763103,0.412502825,2242,535
1205A,丹徒区监测站,镇江,119.43,32.1319,20170601,53.00555556,3439,7357,2113269.784,518393.0431,31,1.03555131,261.5003052,288.1333618,101385.2109,0.002452063,255.5625916,-2.14748e-05,69.52696228,-1.024171114,0.153101444,0.773493886,3318,175
1926A,枣园,延安,109.4131,36.6275,20170601,29.30351906,2720,5754,1176024.898,882454.1196,1065,0.513106167,26.9654789,283.0245667,88592.58594,0.000955282,207.8951721,-7.86441e-06,54.13394547,0.232663453,0.457324445,0.430976599,4455,730
2319A,荔城区仓后路,莆田,119.0156,25.442,20170601,28.97338936,4509,7290,2269646.29,-258298.0098,20,1.362974644,333.9920044,292.4500732,99730.07031,0.00225856,364.8334045,-3.80079e-05,81.36826324,-0.597756803,-1.224902749,0.427908927,2997,974
1689A,高岭,茂名,110.8592,21.6828,20170601,29.20142857,5111,5985,1577195.653,-844612.331,16,1.385302186,254.2406921,295.6589355,101002.3594,0.003173307,258.4579773,-1.73949e-05,80.11118317,-1.333215833,0.376294553,0.473231673,4321,522
1352A,市监测站,广州,113.26,23.1331,20170601,35.90896359,4879,6370,1782533.017,-639093.1125,18,0.782682657,267.8681641,295.0823975,101206.2969,0.003136461,241.9406586,-2.33207e-05,72.53935242,-0.782139659,0.02915013,0.571879387,2436,297
1590A,东河鸿龙湾,包头,110.0377,40.5546,20170601,42.96829971,2091,5854,1153743.546,1362414.768,1008,0.507119,345.7775879,281.8840637,89369.34375,0.000454378,185.3095093,-7.00448e-06,39.69287491,-0.124634251,-0.49156484,0.418643057,1884,439
2700A,市环境监测站,喀什地区,75.9435,39.4365,20170601,133.8005618,2270,399,-1484909.609,1281986.561,1290,0.203933403,64.68322754,288.2397766,86647.0625,0.000276627,371.1020508,-1.81205e-05,33.80693054,0.184344232,0.087212622,0.251003951,3226,1313
1323A,河医大,郑州,113.6356,34.7538,20170601,63.08240223,3019,6430,1559608.928,717793.6263,107,0.650875986,207.8070679,288.1161194,100237.3828,0.00101989,215.631958,-1.23793e-05,58.86881256,-0.303622603,0.575719416,0.839287639,1995,270
2238A,延边医院,延边州,129.5042,42.9061,20170601,20.3913649,1715,8969,2504442.429,2005817.391,180,0.979317307,90.25302887,276.5004883,97651.24219,0.000786697,298.5923767,-3.3222e-06,67.61209869,0.97930795,-0.004279356,0.408384055,2065,899
2635A,市监测站,汉中,107.0154,33.0706,20170601,47.69553073,3289,5370,1033811.955,430151.5471,510,0.12008667,173.3561401,287.5496521,94011.75,0.001753839,77.07151031,-2.24398e-06,75.89679718,0.013904395,-0.119278982,0.569553077,2997,1252
2386A,市交警支队,鹤壁,114.2956,35.7511,20170601,56.3356546,2860,6535,1590638.138,846612.4254,90,0.540479362,55.39128494,287.6413269,100405.8203,0.000884022,201.1470184,-1.02028e-05,56.73690796,0.444832802,0.30698815,0.805345118,3179,1036
1710A,东兴,揭阳,116.3594,23.5739,20170601,28.48587571,4808,6865,2069673.629,-528382.5837,31,0.57477802,259.56604,294.0877686,100362.9063,0.00251438,191.7503662,-1.44238e-05,79.42962646,-0.565269351,0.104116783,0.442840546,2550,538
3046A,机电学校,南昌,115.9083,28.6064,20170601,29.79859155,4003,6793,1902242.438,37936.60086,28,1.410493016,342.1771851,291.3531494,101458.0547,0.002571589,237.2083588,-2.45144e-05,70.93387604,-0.431827575,-1.342764139,0.670610487,2771,1397
2267A,党政办公中心,绥化,126.9636,46.6527,20170601,30.71186441,1116,8562,2180126.846,2378405.876,175,0.873803139,61.62137604,274.9441833,99444.42188,0.000810609,190.8537598,-7.19754e-06,65.32666779,0.768781483,0.41533953,0.365864515,2509,925
2570A,水桥子,甘孜州,101.9603,30.0475,20170601,15.21648045,3772,4562,625427.3095,27806.88671,2740,0.406288981,203.8076019,274.2634583,63770.57422,0.00254528,121.7675018,-3.57074e-06,87.76465607,-0.16400072,0.371718287,0.215120465,6631,1196
2334A,南平七中,南平,118.1756,26.6272,20170601,22.71927374,4320,7156,2159352.843,-142504.5888,152,0.403568268,262.881897,292.3458557,97225.39063,0.002368728,149.6603851,-1.09434e-05,72.15335083,-0.400455773,0.050025139,0.441487908,4573,984
2385A,市监测站,鹤壁,114.17,35.9019,20170601,56.75702247,2836,6515,1576879.685,862483.1652,183,0.735497415,72.12950134,286.5694885,98192.35156,0.000848313,180.3030243,-9.05837e-06,56.39939117,0.700003147,0.225725532,0.781967044,3663,1035
2616A,德宏州监测站,德宏州,98.5842,24.428,20170601,38.13610315,4672,4021,346360.0683,-648839.3908,923,0.524293959,49.02747726,292.3500977,88334.53125,0.003677026,69.67405701,-2.15987e-06,75.00344086,0.39584592,0.343787998,0.271404147,3690,1236
1466A,市人民体育场,西安,108.954,34.2713,20170601,69.81284916,3097,5681,1179125.945,595146.6918,409,0.433108836,202.772583,286.6636353,94733.16406,0.001253752,89.80882263,-7.16216e-06,63.31423187,-0.167640671,0.399349302,0.609525681,1858,394
3048A,九龙,福州,119.58,26.0931,20170601,24.6103352,4405,7381,2303040.135,-171368.0378,46,2.147257328,325.8845215,292.2287903,99451.75781,0.002383557,414.9331055,-7.29902e-05,81.43119049,-1.204450607,-1.777642488,0.43510133,3425,1398
1981A,文登市环保局,文登,122.038,37.197,20170601,22.64730878,2629,7774,2167470.456,1165229.381,49,0.486324281,53.66136932,284.2849426,101081.7891,0.000929517,339.3569946,-1.14569e-05,68.07839966,0.391740322,0.288185418,0.582678914,2062,781
1963A,环保局子站,即墨,120.61,36.44,20170601,31.77478754,2750,7546,2079331.135,1045845.212,75,0.481741548,185.6659241,285.1216125,101136.9844,0.00105534,307.5242004,-3.86657e-05,66.06706238,-0.04755991,0.479388118,0.604243159,3985,765
1865A,八中,桂林,110.2869,25.2178,20170601,37.9301676,4545,5894,1457380.305,-449612.7122,157,1.190551639,316.8713379,292.1083679,98198.99219,0.002973078,213.7904663,-1.30866e-05,75.56040192,-0.81396836,-0.868831813,0.597452879,3319,678
1872A,河西水厂,柳州,109.3886,24.3406,20170601,40.90250696,4686,5750,1387271.058,-563557.5511,91,0.458784848,327.9056396,293.5845947,99991.25,0.003591797,271.9590149,-1.90522e-05,76.70124054,-0.243789017,-0.388652086,0.56827718,2244,682
2587A,八中,毕节,105.2864,27.3125,20170601,31.51949861,4210,5094,957185.4798,-267685.7135,1519,0.382281572,253.7569885,284.9778442,83539.3125,0.002090187,227.9919128,-7.3479e-06,85.83651733,-0.367018372,0.106942587,0.658759654,4304,1209
1327A,汉口花桥,武汉,114.2836,30.6197,20170601,48.60393258,3681,6533,1709816.336,242054.5322,29,1.101818323,301.9703064,290.02005,101298.3906,0.002553479,210.0927734,-3.1854e-05,68.6966095,-0.934733927,-0.583331883,0.811086297,2025,274
1449A,关上,昆明,102.743,25.0124,20170601,30.86350975,4578,4687,742285.0596,-557891.1583,1898,1.317375302,1.720041633,288.3932495,80864.21094,0.003044849,358.9023743,-2.74211e-05,71.48313904,0.039538663,1.316781759,0.288654119,2603,377
2377A,市站,抚州,116.3553,27.9883,20170601,44.83333333,4102,6865,1958016.48,-24602.95435,43,0.956858397,337.5844116,291.8484497,100947.7656,0.002287734,220.3248291,-1.75693e-05,71.22817993,-0.364942819,-0.884530783,0.622548103,2672,1027
1070A,北华航天学院,廊坊,116.7464,39.5343,20170601,46.71830986,2255,6927,1688676.496,1337096.298,15,0.685273647,2.063803434,285.3218994,101502.4609,0.001052768,189.2041473,-9.0666e-06,46.73443604,0.024677454,0.684829175,0.876384199,2900,56
1916A,环境监测站,曲靖,103.7897,25.5035,20170601,35.22957746,4500,4854,837258.136,-492397.3436,1888,1.716951609,194.941391,286.8114014,80383.3125,0.002508642,358.395874,-1.43404e-05,75.14983368,-0.442670286,1.658905029,0.335355341,4422,720
1773A,东局子,吉林,126.5844,43.8358,20170601,31.67275281,1566,8501,2264245.244,2042462.893,192,1.05459702,24.25174522,276.1485596,97983.03906,0.001325919,222.8381348,-1.13752e-05,66.80348206,0.433160365,0.961533725,0.464100629,1338,594
1804A,茅山头,九江,115.9581,29.7048,20170601,43.60306407,3827,6801,1879154.198,166102.221,15,0.904241383,300.8624878,290.1009216,100838.0078,0.00316569,233.4998932,-3.1819e-05,74.71866608,-0.776230514,-0.463808835,0.697830498,1723,624
2685A,新区,固原,106.2375,36.0211,20170601,24.23455056,2817,5246,926588.0422,775639.7685,1790,0.497945905,7.997248173,279.684845,81400.75781,0.000939131,230.6415863,-5.97917e-06,59.96330261,0.069275104,0.493103534,0.373061597,3104,1299
1654A,监测站,济宁,116.5856,35.4144,20170601,52.05196629,2914,6902,1785404.351,846121.2426,40,0.990174472,224.2931976,287.5345154,101232.5391,0.000872542,189.5454254,-1.36452e-05,57.07492828,-0.691452742,0.708758473,0.846585035,2235,493
1634A,气象站,淄博,117.9544,36.6377,20170601,50.94507042,2718,7121,1862341.959,1015809.776,97,1.104663849,184.7385712,285.4519958,99770.29688,0.001072533,199.4207458,-8.6885e-06,59.95675278,-0.091252215,1.100888371,0.766484499,2777,478
2009A,蓓蕾幼儿园,海门,121.1518,31.89708,20170601,35.28041543,3477,7632,2266188.295,529588.4634,5,1.16392684,262.1202393,288.6333008,101710.1016,0.001997298,338.4962158,-3.32408e-05,74.05730438,-1.15293026,0.159616619,0.676906824,3260,808
2343A,老干部活动中心,景德镇,117.2111,29.2958,20170601,34.08831909,3893,7002,2000512.131,143480.0321,45,1.121008873,309.9274292,290.6206055,100389.0391,0.003018231,199.5610199,-1.44461e-05,70.49576569,-0.859702587,-0.719425082,0.613310575,2369,993
1102A,东陵路,沈阳,123.542,41.8336,20170601,30.66997167,1887,8015,2122856.064,1740776.091,56,0.859084368,181.4778137,280.6018066,100910.4297,0.001130205,275.5848083,-8.53349e-06,51.31137848,-0.022155104,0.858798623,0.561574757,2468,86
2284A,职业技术学院,淮北,116.7844,33.9461,20170601,55.20448179,3149,6933,1840522.036,676982.2799,32,1.079333901,245.0466309,287.716156,101268.2188,0.001838218,203.6351166,-1.24638e-05,63.10512161,-0.978564322,0.455382824,0.814001501,3018,941
1142A,十五厂,上海,121.478,31.2036,20170601,43.17563739,3588,7684,2315832.213,457284.2308,10,1.080632925,263.397583,288.9226074,101647.5547,0.001997873,352.5625916,-2.82058e-05,75.58149719,-1.073460817,0.124296024,0.63635695,1842,123
3016A,龙洲湾,重庆,106.5506,29.41569,20170601,31.64325843,3874,5296,1045171.511,-7873.566677,300,0.622029364,303.2274475,291.6806641,97423.89063,0.001409797,127.8334885,-1.01129e-05,73.31949615,-0.520350337,-0.340816736,0.957148075,3611,1382
3035A,北滨河,兴安盟,122.0931,46.0707,20170601,14.30087209,1209,7783,1876604.018,2209679.408,267,1.328297019,104.9607849,277.0768738,97826.95313,0.000739863,295.70578,-6.42826e-06,51.74936295,1.283289909,-0.34284088,0.293536156,2263,1393
1697A,东埔,河源,114.6944,23.7586,20170601,29.19382022,4779,6599,1906340.171,-541143.9331,44,0.585864961,327.2789001,293.8950195,99774.74219,0.002589757,229.3222809,-3.0059e-05,76.90437317,-0.316726774,-0.492871106,0.48905459,2415,527
1562A,昭山,湘潭,113.0048,27.9153,20170601,42.26977401,4114,6329,1656158.618,-94667.55421,50,0.881071806,352.0388184,291.0776367,100592.6484,0.002660718,237.2675018,-1.77896e-05,72.21081543,-0.122107312,-0.872569382,0.77411443,3609,432
2449A,咸安区政府,咸宁,114.2894,29.8539,20170601,36.90972222,3803,6534,1728092.585,152809.1,48,0.823998511,279.9075928,290.0158997,100697.7813,0.002568891,178.2748413,-1.78984e-05,72.78683472,-0.811717153,-0.141735032,0.799533367,4608,1085
1265A,实验学校,衢州,118.871,28.9664,20170601,34.66526611,3945,7267,2156556.979,140633.1108,67,1.054400444,296.470459,290.7413025,100328.1797,0.002603298,195.1674347,-1.09417e-05,74.39060211,-0.943889797,-0.469927907,0.591825068,4123,221
1131A,阿城会宁,哈尔滨,126.979,45.5422,20170601,33.17847025,1293,8565,2224665.012,2249767.507,142,1.1245296,36.37899017,275.5332336,99554.6875,0.00081715,212.2166138,-6.81518e-06,64.67676544,0.666968286,0.905384004,0.432353258,1812,113
1902A,西小区,德阳,104.3883,31.1333,20170601,44.57222222,3599,4950,830683.0648,174681.8665,496,0.548659325,172.5022278,290.3959961,95078.42969,0.001041836,145.555542,-1.02715e-05,66.26266479,0.071641371,-0.543961883,0.768450141,3244,707
2363A,地委,赣州,114.9367,25.8664,20170601,47.77146814,4441,6638,1880028.498,-296077.7442,109,0.469468415,170.721756,292.2148132,99394.53906,0.002014583,267.4163208,-1.70639e-05,75.71694946,0.07573273,-0.463319719,0.537528396,2323,1013
1204A,职教中心,镇江,119.491,32.215,20170601,46.08888889,3426,7367,2115982.529,529348.7991,14,1.037587166,260.7250061,288.1010437,101552.3203,0.002504705,259.5843506,-2.32828e-05,69.39672089,-1.02401495,0.167273566,0.778085232,3445,174
1586A,包百大楼,包头,109.8104,40.6575,20170601,40.33005618,2075,5818,1134550.704,1372189.5,1066,0.637353778,345.0492249,281.608429,89070.15625,0.000407663,179.7046356,-6.04282e-06,39.34965134,-0.164482549,-0.615764022,0.419467777,1478,435
1330A,沌口新区,武汉,114.1525,30.4753,20170601,47.02089136,3704,6512,1701670.835,222910.6105,29,1.077702165,302.203949,290.0886536,101220.2578,0.002574136,214.2940826,-3.42269e-05,68.67253876,-0.911940634,-0.574287534,0.812991083,2110,277
2474A,兴隆步行街,郴州,113.0119,25.8179,20170601,37.42577031,4449,6330,1701702.294,-336726.4442,177,0.259970546,336.2202454,291.3158875,98446.84375,0.002029434,225.2325897,-1.07889e-05,76.14299774,-0.104844972,-0.237891167,0.67931658,3710,1110
2240A,环保局　,鸡西,130.962,45.2924,20170601,22.86111111,1333,9202,2500953.222,2316743.588,206,1.259371758,78.80725098,274.7574768,97771.85156,0.000966321,297.4319458,-5.74787e-06,69.00905609,1.235408187,0.24450697,0.383280218,2052,901
2214A,滨河路,辽阳,123.1761,41.2736,20170601,31.98467967,1976,7956,2115763.165,1667244.861,27,1.027720332,188.5934143,281.02771,100954.7891,0.001036194,264.5457764,-8.9392e-06,52.4006424,-0.153559297,1.016183376,0.57888782,2032,875
2493A,州政府,湘西州,109.7325,28.3169,20170601,40.78011204,4049,5805,1350591.426,-97990.11265,230,0.748540521,288.3500061,289.4301453,97731.55469,0.003589657,230.2562256,-1.15377e-05,76.82450104,-0.71049118,-0.235616714,0.748874843,4368,1128
1041A,小山,唐山,118.1997,39.6295,20170601,51.32686981,2239,7160,1796777.238,1374178.092,33,0.665033042,192.6335602,284.0272827,101417.3594,0.00073672,184.5201263,-8.8188e-06,52.00143433,-0.145448238,0.648932755,0.791115284,2999,31
1246A,袍江站,绍兴,120.598,30.0911,20170601,42.53221289,3766,7544,2274781.606,308825.0294,9,1.023867726,281.7053833,290.1461487,101472.6641,0.002433016,272.2157593,-2.43084e-05,71.48095703,-1.002586007,-0.207668841,0.66721648,2580,210
2575A,长安,凉山州,102.2311,27.8953,20170601,24.98459384,4117,4605,668454.1938,-224580.2746,1540,0.2498153,234.3257599,289.8138123,82585.65625,0.001893445,187.1129608,-3.30195e-06,62.25106812,-0.202932328,0.145691991,0.280997127,4169,1201
2008A,海门市监测站,海门,121.173,31.896,20170601,35.22303207,3477,7636,2268015.755,529952.9627,6,1.146961451,261.8303833,288.6109009,101705.7188,0.001996979,340.2286682,-3.29384e-05,74.13921356,-1.135314941,0.163035393,0.676090777,2852,807
1913A,忠庄,遵义,106.8906,27.6486,20170601,24.83472222,4156,5350,1101005.373,-211565.8519,873,1.177000761,269.7781067,288.2180176,90586.25781,0.001880351,244.8582306,-1.07223e-05,77.79264069,-1.17699182,0.004612549,0.709870279,3028,718
2350A,市环保局,萍乡,113.8686,27.6442,20170601,43.725,4157,6467,1740756.854,-111129.8398,109,0.607530892,271.7436829,291.0496216,99475.70313,0.003139014,145.6219482,-9.49163e-06,76.27965546,-0.607250452,-0.018457489,0.713118553,2786,1000
1790A,龙凤区,大庆,125.112,46.528,20170601,25.71428571,1136,8266,2062553.292,2323900.883,145,0.893705666,65.95240021,276.1199036,99694.01563,0.000782598,227.8874817,-1.46265e-05,60.30093384,0.816126168,0.364208668,0.342921376,1968,610
1221A,宿迁中学,宿迁,118.2442,33.9592,20170601,56.46619217,3147,7167,1961253.169,706759.3965,23,1.014962435,248.1983948,287.376709,101462.875,0.001779311,229.9592285,-2.6262e-05,64.2469635,-0.9423545,0.376983732,0.787112713,3330,188
1343A,湖南中医药大学,长沙,112.8908,28.1308,20170601,43.11408451,4079,6311,1641185.136,-71578.35935,45,0.853407919,352.6566772,290.8698425,100604.3438,0.002662458,241.0706635,-1.74155e-05,72.62168121,-0.109153256,-0.846398652,0.783427894,3672,289
2228A,污水处理厂,辽源,125.1567,42.8953,20170601,33.06657224,1717,8273,2200010.373,1900473.671,268,1.223889828,41.37622833,277.7859802,97905.3125,0.001167713,275.0844727,-8.95835e-06,60.26158524,0.808972418,0.918406248,0.478661478,2140,889
2868A,九站,吉林,126.4738889,43.95305556,20170601,32.6299435,1548,8484,2252072.72,2053556.148,183,1.158568382,33.19928741,276.589447,98939.58594,0.00127056,226.4085236,-8.87201e-06,64.41370392,0.63436079,0.969467402,0.475748479,2790,1335
1757A,东洲区,抚顺,124.0383,41.8625,20170601,29.60694444,1882,8094,2157668.334,1754970.617,101,0.84517628,183.5670471,279.8502808,100080.3125,0.001151623,261.1168518,-1.00531e-05,57.75439072,-0.052582294,0.843539,0.519235134,2924,579
2505A,德智高中,贵港,109.5681,23.1478,20170601,38.18571429,4876,5779,1424864.633,-697681.3057,113,0.446328253,293.3067322,294.0881348,99581.52344,0.003272329,230.177948,-1.65834e-05,77.88550568,-0.409918129,-0.176567376,0.545196533,5219,1137
1061A,北泵房,张家口,114.904,40.8725,20170601,29.97752809,2040,6633,1514805.616,1466735.845,902,1.004780173,341.3278198,278.6998596,89477.35938,0.00080777,216.4284363,-3.59591e-06,49.69035339,-0.321762592,-0.9518677,0.478150576,3146,48
1178A,淮塔,徐州,117.192,34.2417,20170601,62.62464986,3101,6999,1866405.805,719380.6569,39,1.07820034,240.1565552,287.5435181,101265.0938,0.001635063,208.5312195,-1.34286e-05,62.84805298,-0.935201764,0.536575735,0.810628355,3470,155
1372A,华材职中,佛山,113.105,23.0395,20170601,39.28969359,4894,6345,1769555.098,-652521.0692,9,0.79575038,267.0890503,295.2361755,101187.0078,0.002794035,248.4721527,-2.50565e-05,72.00431061,-0.794721782,0.040446728,0.570706666,2500,310
2439A,竹园小学,荆门,112.2014,31.0483,20170601,56.0724234,3612,6200,1518301.944,258064.994,98,0.547357678,357.2966614,289.0420532,100095.4922,0.001961888,228.4979553,-2.06951e-05,71.67955017,-0.025865909,-0.546746194,0.82157737,3589,1077
2372A,市中国银行,宜春,114.3806,27.8014,20170601,50.74166667,4132,6549,1783756.275,-83772.12976,102,0.670342088,270.413208,291.1391602,100364.1484,0.003742702,164.9906311,-1.00835e-05,77.45219421,-0.670324922,-0.004803124,0.691819429,3281,1022
2312A,三国揽胜宫,亳州,115.7831,33.8561,20170601,51.48280802,3163,6773,1759494.753,648060.0469,39,0.876777887,241.3581696,287.943573,101230.2266,0.001687986,196.4363403,-1.10325e-05,62.56277847,-0.769476116,0.420292735,0.838687599,2195,968
1911A,丁字口,遵义,106.9222,27.6869,20170601,30.9275766,4150,5356,1103370.845,-206732.1068,869,1.204445839,270.4447021,288.2242737,90735.42188,0.001904941,244.5178833,-1.07473e-05,77.88352966,-1.204409957,-0.009291916,0.71316433,2938,716
2669A,监测站,甘南州,102.905,35.0003,20170601,27.56901408,2980,4713,662441.9863,625862.2214,2907,0.848208785,282.2159119,274.5579529,69771.72656,0.001358416,141.4181213,-3.48597e-06,71.5104599,-0.829012394,-0.179434091,0.210101157,3731,1284
2339A,金涵水库,宁德,119.5001,26.6946,20170601,30.51558074,4309,7368,2278312.815,-104917.8295,135,0.271472096,308.6144714,290.2366028,96781.14844,0.00383414,177.4463806,-1.50269e-05,84.67468262,-0.212129429,-0.169405431,0.441744655,5632,989
2381A,百草园,上饶,118.0058,28.4569,20170601,36.31908832,4027,7129,2093837.058,63355.26393,125,0.799908519,313.2450256,291.2276611,99754.75781,0.002528333,144.0782928,-9.301e-06,74.95729828,-0.582715273,-0.547993183,0.556254506,4643,1031
1366A,观澜,深圳,114.085,22.75,20170601,34.49715909,4940,6502,1870610.812,-667179.3382,36,1.1803087,259.8186951,294.8808899,100657.0625,0.003093733,270.5914001,-3.14045e-05,78.18308258,-1.161714196,0.208683491,0.508110762,4304,306
2544A,市委,广安,106.6303,30.4576,20170601,42.27513966,3707,5309,1037729.444,115919.2153,310,0.945186138,314.8026123,291.2832642,97796.69531,0.001615451,114.8932953,-8.57133e-06,75.68507385,-0.670692146,-0.665994644,0.881689727,4312,1174
1638A,薛城环保局,枣庄,117.2852,34.7837,20170601,60.64944134,3015,7014,1859415.879,784826.8558,70,1.242194533,242.221283,287.3563232,100902.8359,0.001318938,210.5931702,-2.32299e-05,61.3789444,-1.099018335,0.578969836,0.798897803,3443,482
2545A,友谊中学,广安,106.6271,30.4663,20170601,43.66944444,3705,5308,1037322.98,116913.9154,302,0.967691362,315.3991394,291.2513733,97757.6875,0.001608984,116.0142212,-8.69052e-06,75.70404816,-0.679525912,-0.688963771,0.879355848,3975,1175
1920A,师范学院,咸阳,108.7233,34.3617,20170601,67.50702247,3082,5644,1158243.136,603188.0231,409,0.839052856,174.6754913,286.7914124,95240.23438,0.00105034,100.5067444,-7.16199e-06,62.55570984,0.077936374,-0.835425436,0.620607018,2902,724
2475A,市审计局,郴州,113.0383,25.8071,20170601,32.6800554,4451,6334,1704398.926,-337510.4259,192,0.240424827,333.8120117,291.1817932,98075.71094,0.002024018,219.5547943,-1.09133e-05,76.63010406,-0.10612078,-0.21573706,0.661989987,2535,1111
2874A,益益乳业工业园,淮南,117.0411667,32.64600333,20170601,56.67590028,3357,6975,1896597.917,529533.8617,31,1.130840302,254.9455109,288.3117981,101213.9063,0.002164221,226.0154114,-2.29249e-05,66.19322205,-1.092017651,0.293763787,0.806144416,2470,1341
3028A,檀木林体育馆,自贡,104.7778,29.36028,20170601,54.58543417,3882,5012,885988.2958,-31827.9898,335,0.791309118,359.2512207,291.7330627,97453.1875,0.001059048,150.6390991,-1.28382e-05,72.93257904,-0.010417562,-0.791240573,1.007692575,3919,1390
1454A,金鼎山,昆明,102.681,25.067,20170601,25.84722222,4569,4677,735856.711,-552014.5417,1934,1.3573066,1.588854909,287.9034424,79934.48438,0.003088265,358.0253906,-2.28983e-05,70.30989838,0.037632089,1.356784821,0.291880876,2781,382
1696A,源西,河源,114.6778,23.7569,20170601,27.04225352,4779,6596,1904794.086,-541658.8868,55,0.586523652,328.3630066,293.8779907,99595.33594,0.002593908,228.8796234,-3.0584e-05,76.98720551,-0.30769074,-0.499335945,0.47852692,4106,526
1670A,碧湖山庄,韶关,113.5593889,24.81119444,20170601,36.51396648,4610,6417,1774872.706,-442465.1156,83,0.119470909,359.6052246,293.1229858,99516.77344,0.002608585,153.9846191,-1.02474e-05,75.82808685,-0.000834516,-0.119467996,0.555465877,5077,506
1738A,市中心,阳泉,113.5753,37.8564,20170601,55.25140449,2523,6420,1484010.913,1085897.954,699,0.753548741,77.30951691,282.0491028,91621.40625,0.001092094,158.8437347,-4.69538e-06,61.50248718,0.735133767,0.165571943,0.600037038,2636,561
1290A,省外办,南昌,115.893,28.6844,20170601,36.59401709,3991,6791,1898924.787,46657.37765,28,1.290891767,346.7346191,291.0671997,101131.4609,0.002607477,233.0478058,-2.39785e-05,71.27455902,-0.296317697,-1.2564224,0.681694448,1744,243
2318A,开发区子站,宣城,118.7175,30.9431,20170601,41.53221289,3629,7243,2086810.459,365363.599,42,1.045755744,263.070343,288.8798828,101186.9922,0.002160499,203.2387848,-1.41999e-05,71.29559326,-1.03811121,0.126215369,0.72707063,3807,973
2428A,武当山,十堰,111.0419,32.395,20170601,29.91477273,3397,6015,1390732.183,399611.1341,906,0.581072748,209.7067719,286.7265625,94688.42188,0.001876009,142.3296661,-9.13777e-06,74.19376373,-0.287949502,0.504708469,0.753336906,5870,1066
1870A,柳东小学,柳州,109.4883,24.3898,20170601,38.23142857,4678,5766,1395974.277,-556490.9868,129,0.579104185,335.2332153,293.5350342,99628.05469,0.003629879,262.7426147,-1.98217e-05,75.74874115,-0.24264355,-0.525819182,0.56593293,5763,680
1993A,张家港市监测站,张家港,120.526,31.874,20170601,37.58333333,3480,7532,2213909.63,512655.844,8,1.152732015,262.2667847,288.5232239,101641.5547,0.00200645,299.4348145,-2.33448e-05,71.54403687,-1.142241716,0.155161068,0.728489876,3382,792
2014A,江东,义乌,120.091,29.305,20170601,32.27683616,3891,7463,2254295.032,206896.5633,75,0.737074077,299.9815674,290.2668152,99862.5625,0.002012749,257.0974121,-1.11376e-05,71.07883453,-0.63846606,-0.368292391,0.624889493,2909,812
2869A,五台山医院,扬州,119.458,32.41361,20170601,47.77423823,3394,7361,2107329.738,551695.8844,9,1.059657574,258.0735779,288.150177,101613.5547,0.002596986,258.8884583,-1.91596e-05,69.06277466,-1.036774755,0.219025731,0.777674198,2566,1336
2518A,市疾控中心,河池,108.1009,24.6967,20170601,32.43905817,4629,5544,1258387.446,-539896.5173,281,0.532169461,271.9934082,292.208252,96961.125,0.003518467,232.51091,-1.18597e-05,79.45727539,-0.531848252,-0.018486008,0.565978408,4845,1150
1484A,贺兰山马莲口,银川,105.9512,38.6016,20170601,32.96111111,2404,5200,868240.432,1084277.167,1329,0.716346323,143.5142212,281.2161255,82920.0,0.00044568,203.4988098,-5.87599e-06,40.41498184,0.425998718,-0.575914204,0.351496994,2585,411
1985A,吴江市环保局,吴江,120.636,31.155,20170601,39.32271468,3595,7550,2245392.004,432143.7455,4,1.490454435,270.9126587,289.3637085,101641.1797,0.001800512,329.4098206,-5.48224e-05,72.49164581,-1.490266442,-0.023670746,0.704465568,3136,785
1067A,药材公司,廊坊,116.6838,39.5178,20170601,45.49159664,2257,6917,1684335.023,1334059.153,17,0.669777513,3.102200031,285.3367004,101485.4297,0.001031511,185.1394653,-8.91056e-06,46.43391037,0.036245476,0.668796062,0.894027174,2826,54
2289A,车站新区,铜陵,117.8561,30.9219,20170601,50.87396122,3633,7105,2013000.425,344935.4004,37,0.929070771,282.9291687,289.107605,100906.0,0.00207576,212.970108,-2.08305e-05,70.84411621,-0.905527532,-0.207828,0.740846932,3853,946
1374A,顺德苏岗,佛山,113.292,22.8054,20170601,28.99439776,4931,6375,1792622.345,-675687.2389,1,0.758004069,253.80867,295.2419739,101206.7031,0.003104889,257.3787537,-2.80492e-05,73.72279358,-0.727930486,0.211393848,0.552574277,3532,312
2065A,市酿酒公司,信阳,114.0681,32.1342,20170601,48.12083333,3439,6499,1656072.51,415791.4722,86,0.33098039,244.0778809,288.04776,100527.9141,0.001839149,215.3658295,-1.57024e-05,71.78760529,-0.297675401,0.144697547,0.840458155,2648,819
1127A,高新区管委会,长春,125.25,43.8167,20170601,26.91520468,1569,8288,2172404.572,2010111.368,208,1.359662056,45.00798798,277.8009338,99072.00781,0.00109049,269.1202393,-1.28545e-05,59.46441269,0.961538076,0.961314499,0.478931129,2408,109
2011A,四中,临安,119.6942,30.2311,20170601,36.65868263,3743,7399,2192054.648,304388.8823,60,0.660592973,320.5175171,289.1073303,99573.25781,0.002803886,203.4999084,-9.9256e-06,75.63575745,-0.420069784,-0.509827852,0.703976393,3723,810
2335A,龙岩师专,龙岩,117.0181,25.1174,20170601,23.24930362,4561,6971,2092600.191,-339472.5893,358,0.384046644,260.1303711,290.9665222,94328.82813,0.002547143,109.7207108,-7.1572e-06,78.75170135,-0.378360152,0.06584391,0.436848968,3540,985
2336A,龙岩市监测站,龙岩,117.0216,25.1035,20170601,24.6232493,4564,6971,2093287.343,-340977.7941,338,0.398720503,260.2210083,291.0870361,94684.64844,0.002532167,110.1729736,-7.23627e-06,78.83322144,-0.392924398,0.067738131,0.448465586,3799,986
1598A,镜湖西路,营口,122.215,40.6511,20170601,28.33286908,2076,7802,2066279.669,1573735.717,-5,0.805618107,181.1025543,282.6505127,101502.7969,0.000809575,352.1453552,-4.9582e-05,53.27906418,-0.015500654,0.805468976,0.609398842,2389,447
2517A,市环保站,河池,108.054,24.6928,20170601,30.28151261,4629,5537,1253969.228,-540945.8669,245,0.535634458,270.6789856,292.1390686,96881.55469,0.003584113,238.6083221,-1.20872e-05,79.8213501,-0.535597146,-0.006322374,0.575574994,5054,1149
1351A,花都师范,广州,113.215,23.3917,20170601,31.49579832,4837,6362,1772680.807,-610527.5137,8,0.769667923,291.1340942,294.8891907,101126.6719,0.003101079,224.4102783,-1.7871e-05,72.3507843,-0.717915297,-0.277464032,0.566865027,2460,296
2325A,三明二中,三明,117.6353,26.2708,20170601,26.2752809,4377,7070,2119456.014,-194920.9994,221,0.433126122,271.9342957,291.5101318,95815.0,0.002298447,122.7386703,-8.68529e-06,74.88137054,-0.432880014,-0.014599091,0.449076295,3702,978
2448A,市发改委,咸宁,114.3231,29.8211,20170601,40.85097493,3809,6540,1731833.984,149581.1843,68,0.788140476,274.3710632,289.8173218,100259.9688,0.002672547,174.2637329,-1.65103e-05,73.63240814,-0.785851002,-0.060030218,0.781045616,4231,1084
1802A,市教育基地,马鞍山,118.6439,31.7133,20170601,57.34135977,3506,7231,2058544.327,453116.4437,50,1.178388953,268.5570679,288.4676208,101175.7422,0.002186747,237.5756378,-2.13896e-05,68.86768341,-1.178013921,0.02972706,0.764087915,5237,622
1340A,伍家岭,长沙,112.9792,28.2597,20170601,46.94182825,4059,6325,1646434.86,-55134.31895,30,0.774442554,346.8496704,290.9231873,100887.8672,0.00262666,236.5379486,-1.73787e-05,72.50500488,-0.176255643,-0.7541188,0.799811006,2105,286
2885A,滨江中学,陇南,104.9338889,33.38256667,20170601,22.50144092,3239,5037,851610.3655,447422.7774,1090,0.284801185,233.5663452,282.5770874,82749.35938,0.001501449,160.591095,-3.29327e-06,74.18119812,-0.229130715,0.169147357,0.483033061,3577,1351
1832A,新华旅馆,平顶山,113.322,33.721,20170601,62.36805556,3185,6380,1556737.852,590591.2963,86,0.224137053,198.8684845,288.0117798,100244.9141,0.001300916,212.1009216,-1.32836e-05,62.05892563,-0.072483152,0.212093398,0.861038983,2780,649
1145A,杨浦四漂,上海,121.536,31.2659,20170601,40.78813559,3578,7694,2318797.274,465819.5687,7,1.105717778,262.5270996,288.9989319,101649.5078,0.001952073,375.844574,-3.87511e-05,75.64382935,-1.096320271,0.143853471,0.633812547,1852,126
1515A,天台山庄,株洲,113.135,27.8244,20170601,41.64623955,4128,6350,1669966.122,-103001.2096,47,0.791041613,349.5984192,291.2579346,100618.0156,0.002759503,225.3671722,-1.70918e-05,72.70252991,-0.142887458,-0.778029561,0.761198163,2493,425
1941A,高新一小,渭南,109.4266,34.5021,20170601,61.24373259,3060,5756,1214709.031,628430.6458,357,0.879841268,251.7609558,287.5474243,96176.5,0.001069992,102.3084717,-7.94492e-06,60.6456604,-0.835627019,0.275405437,0.605953097,3409,745
2924A,水乡路(直管站),银川,106.2275,38.44139,20170601,34.7254902,2429,5244,892274.9667,1067379.418,1111,0.685366392,118.7454453,283.8615112,88568.47656,0.000307433,150.2375183,-5.85943e-06,38.86563873,0.600925326,-0.329569131,0.390583903,2988,1364
2407A,理工学院,南阳,112.55,32.9683,20170601,55.1075419,3305,6256,1507927.955,489607.541,122,0.793991506,294.6564941,288.12854,100076.8281,0.001388169,209.1359406,-1.24941e-05,66.55693817,-0.72161895,-0.331192672,0.8530581,2810,1054
1196A,市监测站,常州,119.996,31.7586,20170601,46.04481793,3499,7447,2172421.798,487478.4431,4,1.1553303,261.3725586,288.692749,101678.125,0.001914978,282.2326965,-2.48103e-05,69.73713684,-1.14225018,0.173357278,0.752935469,2368,170
3054A,市委党校,新乡,113.5922,35.28385,20170601,53.94444444,2935,6423,1543984.077,779955.4548,77,0.816206098,331.6189575,288.134613,100455.3359,0.000823945,154.0036469,-8.19638e-06,53.97286606,-0.388026088,-0.718072474,0.771944344,4917,1400
1406A,区农职院,南宁,108.239,22.8464,20170601,32.19683908,4925,5566,1300370.89,-750563.3786,80,1.029970646,251.7612915,294.3756104,99650.26563,0.002759798,257.764679,-1.5841e-05,79.52333069,-0.978213847,0.322392762,0.546062648,2822,344
1826A,世纪星幼儿园,开封,114.2886,34.7967,20170601,58.68994413,3013,6534,1612557.143,733414.1485,74,0.685132325,226.0942535,287.9278564,100723.9375,0.001241425,214.7375946,-1.33414e-05,58.19022369,-0.493613899,0.47513324,0.858758092,3013,643
1245A,市站,温州,120.671,28.0167,20170601,37.0042735,4097,7555,2344583.803,73156.71662,10,0.680588126,326.0200806,290.4649658,100236.5234,0.002726603,271.0088806,-3.65989e-05,80.72190857,-0.38042447,-0.564338028,0.527247071,2176,209
2338A,龙岩学院,龙岩,117.0151,25.0311,20170601,21.51805556,4575,6970,2094554.582,-349343.1519,397,0.463234156,261.2901917,291.2410278,94898.13281,0.00246005,111.8146439,-7.55474e-06,79.13510132,-0.457889199,0.070166752,0.432569057,3777,988
1159A,仙林大学城,南京,118.907,32.105,20170601,37.08189655,3443,7273,2069710.824,504137.4008,25,1.129577279,264.0560608,288.1342163,101281.9219,0.002416553,245.4673462,-1.9872e-05,68.91624451,-1.123499274,0.117022552,0.779545009,3755,140
2877A,坊子邮政,潍坊,119.1638,36.6525,20170601,45.55665722,2716,7314,1958091.557,1041064.292,48,0.81976521,196.9091492,285.90448,101141.7734,0.000789763,244.4321136,-1.19358e-05,59.03960037,-0.238425881,0.784326494,0.738867044,2736,1344
2308A,皖西学院,六安,116.478,31.7618,20170601,41.19722222,3498,6884,1871882.46,415442.9125,42,0.898550034,247.971405,288.4637451,101096.7031,0.001971273,176.9476013,-1.23149e-05,68.41970062,-0.832941175,0.337047815,0.79097712,3376,964
2324A,三钢,三明,117.6211,26.2625,20170601,27.27222222,4378,7067,2118371.85,-196173.853,165,0.444835037,272.9368286,291.5320435,95914.74219,0.002275976,122.2554321,-8.6595e-06,74.80988312,-0.444251895,-0.022769809,0.434409648,4431,977
1452A,龙泉镇,昆明,102.728,25.0836,20170601,21.87534626,4567,4684,740198.1485,-549732.7642,1901,1.296617389,1.919339299,287.9809265,80247.41406,0.003151022,355.6161194,-2.20678e-05,70.58847046,0.043425269,1.295889974,0.294220418,3214,380
1906A,南充市委,南充,106.0789,30.8023,20170601,48.08472222,3652,5221,984124.0733,151032.9064,282,0.885013759,308.9163818,290.8631592,97536.82031,0.001389245,150.9994659,-1.20451e-05,75.01079559,-0.6886338,-0.555907249,0.868879318,2918,711
1232A,城厢镇,杭州,120.27,30.1819,20170601,43.43521127,3751,7491,2243537.147,311721.3579,13,0.914559126,298.2581482,289.8997803,101439.7188,0.002422209,248.1712799,-2.27691e-05,71.24567413,-0.805591345,-0.432944536,0.691005826,2611,199
1658A,电力学校,泰安,117.1081,36.1758,20170601,49.33147632,2792,6985,1807349.704,945512.1025,137,0.754473269,247.5123291,285.6602478,99097.375,0.001000177,167.3327789,-9.08167e-06,62.27106094,-0.69709456,0.288598508,0.806031823,2454,497
2220A,西梁,朝阳,120.4439,41.5931,20170601,27.10888252,1925,7519,1905460.834,1648952.346,174,0.694162071,76.59540558,281.1581116,98463.25781,0.00073706,287.0365906,-4.90828e-06,48.51871872,0.675244868,0.160951361,0.544203877,2238,881
2997A,王营,泰州,119.8767,32.3292,20170601,46.44334278,3407,7428,2145171.081,550960.3736,5,1.032977343,260.0223999,288.0259094,101659.2734,0.002538252,260.3939514,-1.99987e-05,69.54625702,-1.01734674,0.179018795,0.760640621,3235,1370
2181A,开发区,忻州,112.7383,38.4519,20170601,53.09014085,2428,6286,1404884.567,1144779.75,782,0.339300066,49.06974792,282.7994385,91406.52344,0.001043609,102.8699036,-2.58138e-06,52.14321136,0.256338179,0.222295448,0.494992226,2532,846
1011A,奥体中心,北京,116.407,40.0031,20170601,51.25069638,2180,6873,1650384.299,1387133.42,47,0.307361811,103.0270462,284.3847656,100716.8516,0.000990527,123.1825027,-6.28568e-06,46.14625931,0.299455166,-0.069266826,0.850230277,3301,10
1166A,苏州工业园区,苏州,120.669,31.3097,20170601,39.40363128,3571,7555,2243447.141,450737.4049,5,1.345791817,270.2224426,289.0808411,101616.1172,0.001774447,319.516571,-4.18109e-05,72.46854401,-1.345781922,-0.005162416,0.711461306,2826,147
2245A,斯达机电,鹤岗,130.261,47.2753,20170601,23.20251397,1016,9090,2368975.199,2526635.346,145,1.217135906,102.833168,273.7487183,99508.57031,0.000895055,215.3112335,-5.88906e-06,67.04514313,1.186747193,-0.27027896,0.354332983,1781,906
1336A,高开区环保局,长沙,112.8872,28.2189,20170601,46.02374302,4065,6310,1638975.709,-61410.05114,59,0.803195179,350.6568604,290.8293762,100692.2422,0.002678428,240.7741699,-1.75897e-05,72.73033142,-0.130465791,-0.792528391,0.795592368,2907,282
1353A,九龙镇镇龙,广州,113.568,23.2783,20170601,28.38128492,4856,6419,1809092.018,-616977.6772,31,0.696415663,272.9414673,294.5361023,100234.0391,0.003282168,216.859375,-1.91823e-05,74.23719025,-0.695499837,-0.035703715,0.556178868,5539,298
2268A,环保局,大兴安岭地区,124.1186,50.4269,20170601,16.56714286,512,8107,1857177.964,2759831.032,399,0.840717018,114.0391769,271.8976746,95943.70313,0.00077294,230.1941223,-4.56524e-06,65.79052734,0.767819285,-0.342430532,0.188500807,3060,926
1345A,广雅中学,广州,113.235,23.1422,20170601,38.90947075,4877,6366,1779926.644,-638513.0766,10,0.784633756,269.2297974,295.0992737,101227.5625,0.003095145,241.3158112,-2.29249e-05,72.35305023,-0.784562409,0.010583142,0.556961715,2310,291
1797A,五七二零厂,芜湖,118.4022,31.3839,20170601,48.11772853,3559,7192,2047188.256,409829.4369,10,1.208682656,274.6813049,289.0191345,101518.1172,0.002031749,229.969986,-2.35457e-05,68.44996643,-1.204655409,-0.098586068,0.757750034,3297,617
2293A,联富花园,安庆,117.0486,30.5489,20170601,50.58888889,3692,6976,1952992.047,285346.2083,22,1.250477076,323.5499878,289.599823,100956.6172,0.002524432,246.7169647,-2.93401e-05,70.40621185,-0.743009269,-1.005798221,0.731026173,2958,950
1959A,监测站,寿光,118.746,36.881,20170601,52.24558824,2679,7247,1918272.628,1059709.41,21,0.866908371,201.2275848,286.0896606,101380.6875,0.000808298,224.8664093,-1.1834e-05,55.32573318,-0.313875586,0.80809176,0.745500684,2412,762
1751A,铁西三道街,鞍山,122.9642,41.0971,20170601,35.54178273,2005,7922,2106341.566,1641995.548,33,0.997273862,194.035675,281.3293457,100951.4219,0.001008122,274.7186584,-8.05235e-06,52.06453705,-0.241857901,0.967501879,0.582949519,2008,573
1723A,云冈宾馆,大同,113.2994,40.0758,20170601,36.50283286,2168,6376,1412176.251,1347391.396,1044,1.037079215,92.7870636,280.2149658,88793.95313,0.000879601,169.8482971,-5.01817e-06,46.33763123,1.035854936,-0.050377745,0.460584641,1695,548
1393A,下埔横江三路子站,惠州,114.4053,23.08,20170601,28.84733894,4887,6553,1894126.577,-623686.8753,21,0.635555208,273.6177979,294.5423279,100781.3516,0.003018772,209.2550812,-1.52726e-05,77.84584808,-0.634290576,-0.040073249,0.488559157,3056,331
1385A,圭峰西,江门,113.024,22.5328,20170601,36.91903409,4975,6332,1772387.574,-711437.4688,23,0.600268781,261.7745667,295.0432434,101279.0781,0.00332213,247.9923706,-2.01123e-05,77.00639343,-0.594090104,0.085904375,0.543663561,4206,323
2883A,文体中心,玉溪,102.5381,24.339,20170601,22.35252809,4686,4654,728685.8193,-637533.3061,1658,1.268293262,0.765684068,288.8092041,81556.25,0.002286367,248.6258392,-9.29998e-06,71.25341034,0.016949164,1.268180013,0.293379486,3295,1349
1445A,红边门,贵阳,106.7105,26.6009,20170601,37.39915966,4324,5322,1099053.06,-335862.1243,1105,1.231004238,235.4505768,287.4734192,88457.39844,0.002065275,333.3855896,-1.06022e-05,82.98294067,-1.013881207,0.698152244,0.598706007,2731,374
2610A,州水务局,文山州,104.2533,23.3594,20170601,18.79008746,4843,4929,904721.3149,-736411.4984,1275,1.359906197,199.8015747,288.7011414,84959.74219,0.002445734,243.1298218,-6.79694e-06,85.36598969,-0.46067366,1.279501677,0.386454701,3713,1230
1154A,中华门,南京,118.777,32.0144,20170601,39.8255814,3458,7252,2061275.899,490878.6042,17,1.136381865,264.4804993,288.2111206,101415.7656,0.002364999,241.1607819,-2.05117e-05,68.40370941,-1.131108284,0.109351724,0.783036828,2327,135
2242A,白酒厂　,鸡西,131.0103,45.2948,20170601,25.48174157,1333,9210,2504055.155,2318248.399,190,1.266902089,78.77550507,274.7669067,97879.45313,0.000963974,298.3456421,-5.73262e-06,68.97348022,1.242658734,0.246657655,0.378085375,2324,903
1519A,市四中,株洲,113.167,27.8667,20170601,38.5579096,4121,6355,1671962.405,-97554.73998,59,0.769379556,347.1192017,291.2568359,100611.8984,0.002775748,223.0041046,-1.66523e-05,72.72164917,-0.171577454,-0.750004053,0.748995423,3036,427
2873A,仁皇山新区,湖州,120.0875,30.89556,20170601,39.35434174,3637,7462,2206226.21,389797.6738,4,1.074354529,268.1129456,289.2928772,101325.75,0.002172881,307.4073792,-5.2774e-05,71.95672607,-1.073770285,0.035426371,0.745548487,3083,1340
2538A,市监测站,乐山,103.757,29.5634,20170601,52.01133144,3850,4849,791606.1334,-16553.87505,380,0.87563926,115.0060654,291.2200928,96534.74219,0.001024524,134.3856659,-1.23178e-05,70.67913818,0.793581426,-0.370098114,0.897755027,4182,1170
1762A,溪湖,本溪,123.7528,41.3369,20170601,27.14763231,1966,8048,2155605.823,1687194.647,188,0.949497402,204.2605286,279.2185364,98945.27344,0.001130412,224.369873,-7.40622e-06,61.5226059,-0.390124828,0.865648866,0.532090425,3645,584
1730A,审计局,长治,113.0886,36.2126,20170601,68.68767507,2786,6342,1482079.491,882586.0442,921,0.899124026,186.4111176,282.2459106,90455.11719,0.000930382,178.1455078,-5.74636e-06,61.09853745,-0.100394957,0.893501461,0.584191799,2593,554
2694A,市环保局,博州,82.0806,44.8969,20170601,34.93175487,1397,1381,-922558.0233,1866159.803,502,0.539366603,145.1879272,283.5654297,94906.82031,0.000621153,188.2937927,-1.24042e-05,54.69483185,0.307950377,-0.442812502,0.212994978,2184,1308
1182A,农科院,徐州,117.2933,34.2778,20170601,67.94117647,3096,7015,1873800.709,725547.0071,38,1.065492511,240.4212341,287.5091248,101328.3672,0.001641876,209.3422546,-1.38517e-05,62.7490654,-0.926618814,0.525976956,0.810331285,3063,158
2597A,环保局,昭通,103.7225,27.3361,20170601,22.50840336,4206,4844,811829.8525,-279000.1643,1921,0.988420248,305.135376,284.5687256,80641.46094,0.001903543,171.4781494,-6.23521e-06,80.66107178,-0.808361411,-0.568793833,0.481885672,2942,1218
1677A,澄海子站,汕头,116.7519,23.4714,20170601,30.35614525,4825,6928,2109693.098,-531613.8745,6,1.73174572,282.6190796,294.8141785,101162.0938,0.002144465,322.5917053,-4.62446e-05,80.42146301,-1.689933777,-0.378242075,0.394721866,2589,513
2655A,科委,张掖,100.4497,38.9389,20170601,27.20277778,2350,4320,430464.1121,1088851.058,1478,0.86799401,14.07009315,282.2464905,83903.40625,0.000372754,106.0350342,-4.13879e-06,37.64964676,0.211010829,0.841954887,0.220015913,1846,1271
2671A,海晏县西海镇,海北州,100.9048,36.9639,20170601,26.02222222,2666,4393,480788.5372,851288.3369,3106,0.915762842,296.2992859,274.8508911,69149.08594,0.001014638,256.7167969,-9.30309e-06,57.09166718,-0.820998371,-0.405688673,0.153272375,2583,1285
2600A,市中心,丽江,100.2203,26.8906,20170601,12.86505682,4278,4283,489060.2619,-354433.3281,2415,0.471450388,48.6860199,285.0585022,74047.82813,0.002575112,153.2482758,-4.40524e-06,64.28829193,0.354100049,0.311253309,0.188906804,3622,1221
1589A,惠龙物流,包头,109.8654,40.6288,20170601,45.84322034,2079,5826,1139260.093,1369360.745,1055,0.656205893,343.5179443,281.7881775,89330.53125,0.000412402,181.5717621,-6.33687e-06,39.37115097,-0.186228156,-0.62922591,0.411966741,2013,438
2286A,市公路局,铜陵,117.8078,30.9222,20170601,57.00139276,3633,7097,2008815.039,343981.7322,58,0.928633273,284.4909058,289.1851196,101075.5625,0.002065281,215.480423,-2.24227e-05,70.80625916,-0.899103463,-0.232320115,0.748245478,3299,943
1698A,老城,河源,114.6892,23.7233,20170601,26.02240896,4784,6598,1906657.589,-545252.5687,41,0.588151395,325.039978,293.8720093,99512.89063,0.002575225,228.3772736,-2.95643e-05,76.69662476,-0.337049514,-0.481995523,0.480994403,3684,528
2213A,新华园,辽阳,123.15,41.2553,20170601,28.93661972,1979,7952,2114489.313,1664537.52,24,1.044148564,188.657486,281.07724,100955.6484,0.001033832,265.7355347,-8.91004e-06,52.25619507,-0.157168552,1.032252073,0.573555589,2610,874
2290A,市职教基地,铜陵,117.8472,30.9697,20170601,53.95621469,3625,7104,2010917.284,350299.7853,8,0.952269971,285.2825623,289.1690063,101224.8125,0.002050756,217.2445221,-2.24097e-05,70.30760956,-0.918609023,-0.250949264,0.747032166,3014,947
2368A,市森林工业局,吉安,114.9739,27.11,20170601,50.92039106,4242,6644,1854050.711,-152552.4451,61,0.84678787,323.9136353,292.3630371,100604.4375,0.002031853,255.932312,-1.71566e-05,70.83209229,-0.498811871,-0.684278011,0.630548894,3000,1018
1937A,三迪小学,宝鸡,107.2386,34.3622,20170601,50.03760446,3082,5406,1033615.679,586687.8657,591,0.28761375,2.260253668,285.7457886,92072.4375,0.001504506,101.9603806,-4.02169e-06,66.73080444,0.01134264,0.287389994,0.546833992,2701,741
1113A,傅家庄,大连,121.625,38.86388889,20170601,25.54366197,2362,7708,2080940.256,1351447.218,26,0.297588795,113.5048523,284.4838867,101284.4922,0.000440985,514.1121216,-0.000102745,61.78464508,0.272903681,-0.118670449,0.636235833,5164,96
1744A,松山一中,赤峰,118.9233,42.2814,20170601,24.72268908,1815,7276,1773620.886,1702038.747,568,1.161489248,78.83686829,279.4663086,94247.65625,0.000646835,275.7804565,-4.18163e-06,44.60363007,1.139504671,0.224914044,0.444131255,1742,567
2696A,艺术中心,阿克苏地区,80.2956,41.1933,20170601,69.5377095,1989,1095,-1116731.913,1435698.672,1122,0.92384398,339.5630493,285.6088562,88587.33594,0.000293061,112.823555,-1.7371e-05,45.95623779,-0.322655797,-0.86566788,0.252849162,1907,1310
2437A,赵家坝,鄂州,114.8989,30.3714,20170601,57.2733711,3721,6632,1769583.174,223970.6215,32,0.869527996,273.8360291,290.2193604,101020.7344,0.00251587,190.4274445,-3.00439e-05,69.54967499,-0.867582738,-0.058130682,0.765437305,3278,1075
1714A,牧羊,云浮,112.0539,22.9539,20170601,31.77562327,4907,6177,1669594.799,-680641.0578,93,0.844846368,260.4356995,294.0514221,98688.71875,0.003123252,207.6355591,-1.16317e-05,78.41332245,-0.833096981,0.140409529,0.547084212,3633,542
1180A,新城区,徐州,117.256,34.2153,20170601,58.55555556,3106,7009,1872410.371,717498.8861,37,1.067156792,241.0869598,287.526001,101319.5625,0.00166982,209.2604218,-1.35686e-05,62.99317169,-0.934124291,0.515980005,0.793101192,3533,156
1728A,监测站,长治,113.0972,36.1939,20170601,67.90720222,2789,6344,1483190.84,880489.7113,929,0.92394352,186.3601074,282.2337036,90377.16406,0.000930865,178.9786987,-5.68634e-06,61.25635529,-0.102349192,0.918257236,0.596491933,2285,553
1753A,明达新区,鞍山,123.0156,41.0831,20170601,32.32402235,2007,7930,2110588.975,1641456.644,89,1.017026067,196.005249,281.0834045,100501.4375,0.001024689,271.6261292,-8.07623e-06,52.90532303,-0.280411899,0.977604866,0.574787974,2426,575
1524A,市监测站,株洲,113.13,27.8528,20170601,43.01404494,4124,6349,1668896.64,-99794.76483,41,0.797493875,349.0153198,291.2219238,100579.5313,0.002730258,226.1065521,-1.70485e-05,72.64543915,-0.152027696,-0.782869101,0.761444569,2462,429
1508A,板塘,湘潭,112.9433,27.8614,20170601,42.59331476,4122,6319,1651718.931,-101952.5419,60,0.917779863,354.5755005,291.0956726,100709.7031,0.002673088,239.433075,-1.76781e-05,72.40300751,-0.086843744,-0.913661897,0.7768085,1855,420
1462A,高压开关厂,西安,108.882,34.2749,20170601,66.98873239,3096,5669,1173021.442,594714.3148,399,0.271153122,193.2610321,286.6852722,94717.76563,0.001240007,89.31004333,-7.10064e-06,63.45855713,-0.062197357,0.263923287,0.610731244,2303,390
2394A,油田运输公司,濮阳,115.0628,35.7672,20170601,57.94301994,2857,6658,1652623.424,861182.6019,51,0.79353267,211.0608826,287.787384,101060.7109,0.000789008,205.6059265,-1.08852e-05,54.86082077,-0.409411103,0.679762185,0.861858964,2218,1042
2347A,武功山气象站,萍乡,114.0944,27.4948,20170601,22.06590258,4181,6503,1764724.831,-124369.6582,397,0.58000946,261.7337646,289.4288025,94675.32031,0.004073772,141.7137451,-9.08755e-06,79.05051422,-0.573980033,0.08341372,0.664875269,6254,997
3025A,技师学院,清远,113.0472,23.63444,20170601,34.71169916,4799,6336,1751404.674,-585921.0227,13,0.708671927,310.3640137,294.385437,100601.8516,0.003207473,208.5917969,-1.59962e-05,74.40440369,-0.539999843,-0.458929271,0.57777518,4491,1387
1749A,太阳城,鞍山,123.011,41.0931,20170601,28.875,2005,7930,2109908.208,1642530.524,90,1.024908066,194.9835358,281.1362,100626.1094,0.001023153,271.911499,-8.1068e-06,52.71163177,-0.26497367,0.990063429,0.575857282,2169,571
1483A,第五水厂,西宁,101.524,36.6867,20170601,52.19736842,2710,4492,533365.5383,820935.9539,2424,0.454251558,194.5162811,278.0318604,73803.48438,0.001060768,185.4665527,-4.37961e-06,52.40709305,-0.11385712,0.439751089,0.199551359,3763,410
1513A,岳塘,湘潭,112.9227,27.8159,20170601,45.07222222,4130,6316,1650816.787,-107573.9053,48,0.919741392,355.3554382,291.0926514,100734.8203,0.002681269,239.6596375,-1.76111e-05,72.49411774,-0.074557491,-0.91671443,0.779583097,2675,423
1370A,斗门,珠海,113.299,22.2281,20170601,30.13276836,5024,6376,1805613.163,-740908.4287,6,1.303276181,264.6208801,295.6557617,101040.4297,0.0027672,355.4140625,-7.20109e-05,78.17297363,-1.297531486,0.122232631,0.494875938,2750,308
1795A,科创中心,芜湖,118.37,31.4189,20170601,49.21848739,3553,7187,2043439.952,413221.435,11,1.186893106,274.5854492,288.9786377,101514.2734,0.002047622,231.4064636,-2.42413e-05,68.49343872,-1.183098793,-0.094829425,0.756279826,1929,615
2481A,冷水滩区环保局,永州,111.5989,26.4519,20170601,38.40285714,4348,6104,1557054.226,-287075.5004,107,0.589670718,323.3930359,291.8050842,99112.42188,0.001756925,261.0776062,-1.18115e-05,70.55952454,-0.351668864,-0.473329216,0.739135087,2774,1117
2532A,东兴区政府,内江,105.0717,29.5947,20170601,34.1028169,3845,5059,909681.7198,-1474.529073,323,1.088062406,328.4711304,291.5606689,97359.65625,0.001108068,159.6989441,-1.25981e-05,73.62997437,-0.569049478,-0.927395523,1.015865326,3002,1164
3033A,培训基地,乌鲁木齐,87.4651,43.4569,20170601,18.97464789,1627,2242,-552600.1829,1650168.661,1720,0.821363986,40.33463669,275.6513062,81051.17969,0.000779964,177.4375,-9.77225e-06,59.73023224,0.531615376,0.626118064,0.191398412,2550,1391
1909A,嘉陵区环保局,南充,106.0642,30.7636,20170601,51.33240997,3658,5218,983342.084,146302.6342,284,0.902434289,309.4742432,290.9161072,97565.28125,0.00138268,151.4132996,-1.18652e-05,74.98168182,-0.696636617,-0.57365942,0.878920257,3093,714
1893A,九狮山,泸州,105.4306,28.9583,20170601,39.22050562,3947,5117,949971.4142,-73109.55815,322,0.549115181,334.5930786,291.9873962,97864.92188,0.00128253,148.4105988,-1.30472e-05,73.7434845,-0.235634133,-0.495987952,1.058444619,4853,700
1418A,虎溪,重庆,106.296,29.5983,20170601,37.21030641,3844,5255,1019751.181,10970.67597,298,0.751918852,326.3827515,291.504364,97103.30469,0.001450536,137.1002808,-1.07257e-05,73.43577576,-0.416341037,-0.626132667,0.969889939,3527,352
1143A,虹口,上海,121.467,31.3008,20170601,38.97262248,3572,7683,2311805.803,468209.5881,7,1.101606488,262.9876404,288.9433899,101649.1719,0.001934772,358.8995972,-3.26369e-05,75.54244995,-1.093360543,0.134534463,0.64725107,2577,124
1209A,留学生创业园,泰州,119.888,32.4639,20170601,55.42896936,3386,7430,2142080.254,566831.3799,3,1.003367186,258.8575439,287.8908691,101686.2188,0.00261259,255.0440063,-1.5001e-05,69.44334412,-0.984445691,0.193939552,0.766198397,3361,178
1341A,火车新站,长沙,113.0014,28.1944,20170601,52.33757062,4069,6328,1649849.695,-62343.35904,48,0.786838472,348.3643494,290.9443665,100827.4063,0.002591404,236.0260315,-1.72821e-05,72.36945343,-0.158762127,-0.770655155,0.784723103,1952,287
2914A,苏山坪,巴中,106.7513889,31.87888889,20170601,31.05857143,3479,5328,1028245.886,285604.8766,467,0.880945444,328.3469238,289.2779236,94902.54688,0.001958027,117.5090942,-7.85674e-06,72.56833649,-0.462355405,-0.749861538,0.682826221,4378,1356
2537A,市第三水厂,乐山,103.7506,29.6007,20170601,49.0491573,3844,4848,790635.4219,-12196.30162,370,0.896206439,115.0095749,291.2340393,96581.35938,0.000973635,136.1267548,-1.26079e-05,70.75499725,0.812198043,-0.378840804,0.891406178,3620,1169
1349A,市八十六中,广州,113.433,23.105,20170601,34.26330532,4883,6397,1799828.954,-639129.1144,4,0.756003141,262.1160889,294.9769592,101113.7813,0.00338229,241.3295441,-2.54152e-05,73.80982208,-0.748852968,0.103730068,0.563663125,2445,294
2519A,来宾二中,来宾,109.2131,23.7208,20170601,38.19806094,4785,5722,1380833.326,-637169.8023,84,0.755312443,308.4341431,293.9679565,99768.76563,0.003375312,279.06427,-1.71357e-05,76.25611877,-0.591684639,-0.469474316,0.567354083,3973,1151
2232A,环保局,白山,126.4078,41.9419,20170601,32.37709497,1869,8473,2324880.745,1818278.223,500,0.647617877,37.19845963,275.3440247,94072.5,0.001318248,221.3408356,-6.56498e-06,75.49783325,0.391525477,0.515865028,0.460416764,2581,893
1974A,蓬莱博物馆,蓬莱,120.773,37.809,20170601,28.17908309,2531,7572,2049186.289,1209745.122,19,0.8466748,0.03956585,285.5157471,101169.8203,0.000693343,468.5272217,-7.63137e-05,61.16248322,0.000536061,0.846674621,0.637932777,2151,774
2373A,市石油公司,宜春,114.3953,27.7842,20170601,48.19777159,4135,6551,1785489.229,-85493.24675,107,0.642351568,269.9945679,291.020752,99993.39063,0.003815764,166.0158844,-1.02667e-05,77.5470047,-0.642351568,9.09032e-05,0.681075931,3992,1023
2663A,监测站（原粮食局）,定西,104.6228,35.5714,20170601,27.74789916,2889,4988,799228.8268,707363.7087,1939,0.987079501,217.6892548,279.9481506,79557.04688,0.000822836,245.6480865,-6.45643e-06,61.06822968,-0.603464186,0.781125367,0.323401719,2563,1279
1280A,鼓山,福州,119.389,26.0542,20170601,24.21186441,4411,7350,2286633.379,-180241.4635,350,0.856737316,324.4451599,291.8222656,99741.82813,0.002665866,324.4317017,-3.70487e-05,83.3534317,-0.498229057,-0.696969628,0.415077567,5913,236
1104A,文化路,沈阳,123.41,41.765,20170601,38.61699164,1898,7994,2115706.35,1729888.82,43,0.828971922,1.479269505,280.7277832,101098.9844,0.001110342,275.3372803,-8.63597e-06,50.45639801,0.021399353,0.828695655,0.582520604,2436,88
2075A,九湖,漳州,117.6336,24.4674,20170601,27.59357542,4665,7069,2167348.216,-399847.8234,48,0.607177198,243.053009,293.5982971,99639.15625,0.002187408,195.939743,-1.14019e-05,77.71063995,-0.541244745,0.275169551,0.421488822,5669,826
2247A,五号水库,鹤岗,130.1097,47.3382,20170601,17.86571429,1006,9066,2356551.752,2530215.852,165,1.211852551,106.1408234,273.8323059,98534.24219,0.00099897,220.8084564,-5.24671e-06,69.71770477,1.164101243,-0.336830497,0.333137006,3711,908
1678A,潮阳子站,汕头,116.6092,23.2539,20170601,24.50423729,4859,6905,2101564.77,-559215.9042,27,2.059513807,282.8687744,294.9584656,101095.2734,0.002129409,356.4177246,-5.92966e-05,80.64022827,-2.007808685,-0.458586454,0.412594229,3220,514
2194A,秋林养殖基地,巴彦淖尔,107.5936,40.916,20170601,28.17335244,2034,5463,961710.3623,1379813.209,1033,0.17704615,57.58438873,282.5994263,89611.53125,0.000252741,198.9614868,-6.39003e-06,33.10530853,0.149456322,0.09491124,0.391774625,2247,857
2690A,天山天池,昌吉州,87.9897,44.1564,20170601,10.12539185,1515,2326,-508085.4248,1732801.491,558,0.777440488,12.27381229,283.6047974,93165.0625,0.000331724,194.7369843,-8.14053e-06,45.60099411,0.165266424,0.75967145,0.212963939,2710,1304
2171A,锦纶小区,晋中,112.7549,37.7019,20170601,59.83055556,2548,6289,1422573.517,1055309.148,822,0.515580297,245.4406586,283.4151611,91511.89844,0.000796085,154.3292084,-6.42277e-06,51.69888687,-0.468929231,0.214309245,0.512913585,1784,838
1800A,慈湖二小,马鞍山,118.5106,31.7506,20170601,49.01256983,3500,7210,2046104.694,454664.0869,10,1.156383038,268.999176,288.5747375,101481.2656,0.002197216,238.6899872,-2.39665e-05,68.50488281,-1.156205773,0.020251423,0.761320829,2924,620
2922A,大理道,天津,117.1941,39.1067,20170601,47.90083799,2323,6999,1734525.775,1294079.185,8,1.044128656,190.2506409,285.3526001,101633.3125,0.000782741,200.1099548,-2.0879e-05,49.80358887,-0.185801789,1.027464032,0.859359741,2162,1362
1983A,乳山市环保局,乳山,121.531,36.913,20170601,20.8988604,2674,7693,2137020.943,1120939.008,24,0.297029167,103.4968414,284.7035522,101225.7266,0.000956236,348.9638977,-3.36368e-05,68.25534058,0.288829744,-0.069308795,0.585755289,2189,783
1344A,沙坪,长沙,112.9958,28.3586,20170601,47.99858757,4043,6327,1645810.518,-43370.10594,69,0.756720543,342.5375671,290.8086548,100645.4453,0.00267755,237.1007385,-1.7639e-05,72.65622711,-0.227137432,-0.721827209,0.780225039,4589,290
1339A,雨花区环保局,长沙,112.9956,28.1442,20170601,44.35195531,4077,6327,1650403.339,-68267.65041,83,0.812318444,349.3313599,290.9437561,100703.9297,0.002605598,236.9651947,-1.73276e-05,72.30608368,-0.150453061,-0.798263848,0.780599594,2931,285
3012A,西山林语(启用161103),荆门,112.1908,31.03389,20170601,50.85154062,3615,6199,1517675.093,256208.5658,117,0.56425637,354.5836792,289.0747681,100168.3672,0.001967496,228.5219574,-2.08762e-05,71.69390106,-0.05331168,-0.561732233,0.821527898,4217,1379
2866A,外滩首府,运城,111.0522222,35.04388889,20170601,72.68296089,2973,6016,1339796.58,714146.36,349,1.178678274,245.3684692,287.0262146,96694.34375,0.000989847,164.1177979,-1.13368e-05,59.48862457,-1.071410179,0.491286695,0.627516806,2613,1334
2902A,北辰小学,广安,106.6351,30.4865,20170601,37.19359331,3702,5310,1037749.261,119386.489,280,0.966715097,315.5208435,291.2397156,97742.94531,0.001614881,116.2177811,-8.66092e-06,75.77349091,-0.677376926,-0.689709067,0.870176435,3875,1354
2003A,宜园,宜兴,119.794,31.371,20170601,48.33333333,3561,7415,2166805.162,438180.2523,1,1.432892442,257.9572754,289.2860107,101386.2188,0.002004848,312.0127258,-5.81421e-05,71.57782745,-1.40134573,0.299016446,0.740708411,2835,802
1319A,供水公司,郑州,113.564,34.802,20170601,62.60085227,3012,6418,1552596.175,722371.2196,112,0.702414095,213.4332581,288.1034546,100289.3906,0.000992073,207.3097992,-1.29245e-05,58.3849678,-0.386995584,0.586191058,0.851491392,2711,266
1389A,莞城梨川,东莞,113.7480556,23.06,20170601,39.63445378,4890,6448,1831206.167,-638412.5699,5,0.760095775,256.1028748,295.0964966,101140.9844,0.003113785,241.2823334,-2.65111e-05,73.59203339,-0.73783952,0.182588294,0.533854187,2454,327
1412A,海南师范大学,海口,110.338,19.9969,20170601,18.88642659,5381,5902,1555734.147,-1043102.57,17,3.203410864,265.3181458,297.1684875,100737.7109,0.002318121,454.3805847,-8.14985e-05,82.31691742,-3.192710638,0.26161167,0.413349807,2986,348
1605A,兴隆台,盘锦,122.0539,41.0903,20170601,31.2005571,2006,7777,2039772.967,1621991.373,3,0.710598469,22.0561924,281.8742981,101726.3516,0.000900518,298.1155701,-1.40382e-05,51.4271698,0.266833514,0.658597052,0.59926194,2803,453
1073A,市环保局,沧州,116.8709,38.3228,20170601,54.73184358,2448,6947,1730755.299,1195336.823,9,1.189467311,203.3088531,285.6641235,101564.7656,0.000926884,180.3038177,-9.42345e-06,50.5304451,-0.470644176,1.092394948,0.85095942,2064,59
1477A,榆中兰大校区,兰州,104.148,35.94,20170601,27.50283286,2830,4912,755766.044,747988.3951,1773,1.285517573,230.1035919,281.2746887,81500.70313,0.000994183,220.7520905,-7.0712e-06,57.92592621,-0.986234665,0.824558377,0.318494707,2671,405
2376A,桐源党溪,抚州,116.2239,28.0797,20170601,43.84861111,4087,6844,1943846.016,-16680.09585,45,1.054667711,338.5984192,291.7095032,100798.1953,0.002379155,227.6644287,-1.8134e-05,70.86721802,-0.384931028,-0.981912494,0.626872838,5661,1026
2846A,体育西,广州,113.3208,23.1323,20170601,35.87222222,4879,6379,1788416.595,-638079.1327,9,0.774305105,266.3726501,295.0050354,101110.1406,0.003248306,240.7895813,-2.37406e-05,72.95316315,-0.772751689,0.049022432,0.568709731,2707,1328
1756A,顺城区,抚顺,123.9169,41.8828,20170601,34.99301676,1879,8075,2148190.082,1754686.447,85,0.870360017,183.5139618,280.1009216,100188.2578,0.001156587,270.4274902,-9.77627e-06,55.74318314,-0.053344153,0.86872375,0.5467273,2909,578
3051A,西四道,天津,117.3916,39.1495,20170601,51.78892216,2316,7031,1748515.978,1302660.43,4,0.98868078,189.3351593,285.1841736,101665.2969,0.00080137,207.2237396,-2.1277e-05,50.41049957,-0.160368502,0.975587845,0.846681476,3151,1399
2463A,市一中,邵阳,111.4733,27.2317,20170601,51.66572238,4223,6084,1530103.717,-198774.641,235,0.950242102,301.5267029,290.3252563,98676.13281,0.002182061,233.4302521,-1.12113e-05,75.72887421,-0.810014248,-0.496826828,0.741808414,2417,1099
2617A,芒市建设局,德宏州,98.578,24.441,20170601,42.49019608,4670,4020,345706.1916,-647351.3981,909,0.524014056,47.25299835,292.4095764,88425.39063,0.003632618,69.62265015,-2.15409e-06,74.87721252,0.384805262,0.35569036,0.274780333,3682,1237
1705A,西园路,潮州,116.6339,23.6714,20170601,29.08888889,4793,6909,2093378.022,-511547.168,17,0.72311306,272.6368408,294.2747498,101239.7188,0.002698529,203.0926514,-1.7308e-05,81.17048645,-0.722348988,-0.033232827,0.430449426,2247,534
2492A,跃进水库,湘西州,109.6414,28.2558,20170601,32.74358974,4059,5791,1343373.269,-106374.5205,293,0.732493699,285.2645874,289.1526794,96839.07031,0.003487726,229.2196503,-1.13689e-05,77.95145416,-0.706661999,-0.192810401,0.74516511,5910,1127
2283A,烈山区政府,淮北,116.8067,33.8997,20170601,59.70949721,3156,6937,1843604.428,671952.2147,29,1.083043218,246.0786743,287.7176514,101262.5078,0.001905322,203.9851227,-1.25052e-05,63.25701141,-0.989998281,0.439187914,0.80707562,2992,940
1952A,南林小区,克拉玛依,84.8897,45.5828,20170601,21.96296296,1287,1830,-714135.383,1926271.785,354,1.908054829,134.3760223,285.3796997,96513.34375,0.000269908,567.0460815,-9.76535e-06,42.00608826,1.36390388,-1.334331036,0.240162075,2059,755
1395A,惠阳区承修路船湖子站,惠州,114.3244,22.8172,20170601,24.58848315,4929,6540,1892259.655,-654992.357,81,0.956310332,267.0995483,294.4826355,100138.3594,0.003024695,255.1569366,-3.01505e-05,79.50608826,-0.955083072,0.048433039,0.489254385,4177,333
1564A,韶山,湘潭,112.4876,27.9164,20170601,41.67039106,4113,6246,1609072.307,-103133.464,164,0.976414919,356.8845825,290.6444702,100008.2578,0.002232114,254.2412262,-1.53237e-05,73.86838531,-0.05315356,-0.974967062,0.801579356,5089,433
1859A,电业局,张家界,110.4697,29.1242,20170601,40.49860724,3920,5923,1402654.32,6714.878383,187,0.917783022,271.5867615,288.7306824,96559.67969,0.00287608,208.3604279,-8.75514e-06,77.36063385,-0.917432308,-0.025370562,0.752946079,3363,672
2432A,襄城运动路,襄阳,112.155,32.0197,20170601,64.06741573,3457,6193,1494087.063,371650.2164,69,0.583027184,205.0807037,288.690094,100355.3984,0.001769713,229.0804749,-1.67241e-05,67.86605835,-0.247135058,0.528057694,0.838162959,2640,1070
2625A,山南人民医院,山南地区,91.7706,29.261,20170601,7.943313953,3898,2931,-293440.6663,-82894.96948,3554,0.663208723,217.407135,279.0942993,61499.89844,0.001461139,321.644989,-7.48978e-06,46.35028076,-0.402872384,0.526820302,0.088327661,2181,1244
2568A,马师校,阿坝州,102.2402,31.8934,20170601,3.856338028,3477,4606,634327.5735,249160.9657,2967,0.436406434,265.7664795,274.9389343,65873.66406,0.001623698,85.46770477,-1.31826e-06,72.85816193,-0.435214251,0.032235384,0.14681676,7007,1195
1971A,1号,平度,119.952,36.792,20170601,32.28248588,2693,7440,2016357.371,1073392.484,56,0.725837588,226.8506317,285.0223999,101208.0703,0.000872484,248.8716888,-7.99817e-06,63.21492386,-0.529539764,0.496415019,0.672168195,2458,771
1811A,中信二小,洛阳,112.3628,34.6692,20170601,60.93277311,3033,6226,1456034.9,688227.0153,175,0.28727743,213.4764709,287.6018677,98713.89063,0.001070342,170.1418762,-1.0388e-05,60.11990356,-0.158456504,0.239624396,0.782719254,2822,631
2380A,医学分院,抚州,116.385,27.9647,20170601,37.26330532,4106,6870,1961297.604,-26728.8928,47,0.91591692,337.2653809,291.7987671,100783.7656,0.002294607,218.4802399,-1.7136e-05,71.55229187,-0.354036391,-0.844726026,0.620418012,2675,1030
2692A,新区政务中心,昌吉州,87.2717,44.0297,20170601,52.32122905,1535,2211,-561241.372,1721226.929,570,0.759749651,55.69974518,284.4645996,94640.30469,0.000288062,191.508316,-9.42329e-06,46.22452164,0.627613723,0.428159505,0.222225696,2469,1306
1793A,让胡路区,大庆,124.8648,46.6219,20170601,21.60504202,1121,8226,2042703.381,2329714.516,147,0.841696203,67.82704163,276.3719482,99741.51563,0.000755784,234.8500214,-1.28773e-05,59.32965088,0.779440641,0.317686498,0.337514758,2678,613
2399A,三五一五工厂,漯河,114.056,33.567,20170601,55.5480226,3209,6497,1621903.539,584276.1561,62,0.608364642,230.4484711,288.1853943,100996.1875,0.001530548,202.6868744,-1.26493e-05,62.51510239,-0.469070822,0.38740173,0.87829119,2390,1046
1470A,阎良区,西安,109.2,34.6575,20170601,67.91428571,3035,5720,1193064.872,644194.9663,385,0.998359978,329.9326172,288.1097107,96786.19531,0.000930122,133.8486176,-8.47837e-06,57.2674942,-0.500263512,-0.863978624,0.616701365,3677,398
1610A,东城区,葫芦岛,120.8631,40.7736,20170601,32.87222222,2056,7586,1962190.546,1560442.15,22,0.926190615,60.43153,282.8128052,100720.5547,0.000592419,383.5965271,-5.67737e-05,53.74096298,0.805555463,0.457066149,0.616130948,2312,458
2233A,江南,松原,124.8292,45.0878,20170601,27.28830084,1366,8221,2096559.17,2149522.049,134,1.231211782,38.10520172,277.7322388,99947.17969,0.00073872,254.6051636,-9.78751e-06,55.52175903,0.759770751,0.968829632,0.394981861,2514,894
1748A,深沟寺,鞍山,123.044,41.1196,20170601,33.3767313,2001,7935,2111414.324,1646346.904,86,1.042547464,193.8271942,281.1046753,100647.7344,0.001028935,270.2232361,-8.14869e-06,52.92178726,-0.249155462,1.012337208,0.565992832,4178,570
1390A,东城石井,东莞,113.7944444,23.01277778,20170601,33.54142857,4898,6455,1836718.503,-642900.465,30,0.848429978,255.7484283,295.0090637,100808.9063,0.003111002,245.9399414,-2.64898e-05,73.77760315,-0.822310686,0.208898515,0.540817261,5663,328
1118A,双D港,大连,121.9769,39.0631,20170601,25.05477528,2330,7764,2101175.915,1382302.305,22,0.332625717,119.8187866,283.7857971,101264.1484,0.000470483,433.2407532,-7.18987e-05,61.11878967,0.288597077,-0.16538316,0.610258937,5345,100
1380A,张溪,中山,113.3881,22.5497,20170601,33.25770308,4972,6390,1807414.348,-702891.347,2,0.793949068,250.8421021,295.2735291,101052.7891,0.002968894,287.220459,-3.49542e-05,76.26359558,-0.749968886,0.260579675,0.531543255,2896,318
2452A,市林业局,随州,113.3833,31.6908,20170601,49.01955307,3510,6389,1607172.389,352335.6562,85,0.661326408,269.8027344,288.4047546,100250.1016,0.001895521,208.8917847,-1.43587e-05,71.05017853,-0.661322355,0.002307559,0.811189592,3807,1088
1098A,森林路,沈阳,123.6836,41.9339,20170601,26.52638889,1871,8037,2129556.98,1755592.0,125,0.876135111,0.49298948,280.3681641,100458.2188,0.001152093,283.7866211,-9.02257e-06,52.2916832,0.007538188,0.876102686,0.544104815,2857,83
1148A,浦东川沙,上海,121.703,31.1907,20170601,36.71126761,3590,7720,2335439.812,461126.0509,4,1.371918678,263.9904785,289.4405212,101691.0469,0.001936592,437.2162781,-6.20038e-05,75.67650604,-1.364373088,0.143690243,0.614477754,3420,129
2379A,采茶剧团,抚州,116.3574,28.0005,20170601,44.09887006,4100,6865,1957895.616,-23155.7597,40,0.970585465,337.4850159,291.8616028,100992.25,0.002289904,220.8904114,-1.77261e-05,71.11911774,-0.371733993,-0.896576822,0.62272191,2512,1029
1015A,勤俭路,天津,117.145,39.1654,20170601,50.42458101,2314,6991,1729155.563,1300184.178,6,1.027325869,188.9700317,285.4299316,101665.4531,0.000777989,198.2338409,-1.75793e-05,49.15804672,-0.160173729,1.014762402,0.864020705,2398,12
1763A,彩屯,本溪,123.7308,41.3047,20170601,28.61699164,1971,8045,2155138.321,1682943.257,144,0.922013879,205.1357117,279.1554565,98943.08594,0.001129588,224.1584473,-7.41297e-06,61.90137863,-0.391627342,0.834708095,0.537741661,2687,585
1200A,武进监测站,常州,119.935,31.7039,20170601,43.56005587,3507,7438,2168876.566,479800.8627,5,1.183915377,261.4901123,288.6828613,101629.7188,0.001872173,288.6053467,-3.31543e-05,69.73280334,-1.170873523,0.175245017,0.748586833,3139,171
2637A,南郑大河坎水厂,汉中,107.007,33.0323,20170601,47.88611111,3295,5369,1033653.309,425499.2719,511,0.041591436,160.3083649,287.5950928,94354.60156,0.001746097,80.02737427,-2.10086e-06,75.43299103,0.014017797,-0.039158002,0.580293953,4032,1254
2678A,高级中学,吴忠,106.2025,37.9844,20170601,35.49438202,2503,5240,896619.8298,1011932.708,1131,0.399353206,185.6519318,285.2631836,88568.42969,0.000372326,277.828064,-9.58941e-06,37.78768921,-0.039329208,0.397411883,0.380642414,2617,1292
1308A,李沧区子站,青岛,120.3905,36.1851,20170601,42.19219653,2790,7510,2069799.107,1011370.883,28,0.7155146,189.3818665,285.9462585,101179.6328,0.000868624,359.5069885,-5.9206e-05,66.18849182,-0.116635114,0.7059443,0.650496602,2283,260
2301A,市监测站,阜阳,115.8275,32.8928,20170601,51.21148459,3317,6780,1787551.592,535684.1737,31,0.875802696,253.3766785,288.2510681,101354.2813,0.00217193,197.380127,-1.31835e-05,64.80891418,-0.839190185,0.250579804,0.841141105,2434,958
1942A,市科委,金昌,102.1878,38.5247,20170601,33.28028169,2416,4598,571224.379,1047386.36,1522,0.39669314,66.76177979,283.6272888,83436.13281,0.000315591,303.3875732,-5.57107e-06,33.57984161,0.364504993,0.156529739,0.265895754,1984,746
1956A,孔雀公园,库尔勒,86.1461,41.7511,20170601,53.63764045,1900,2031,-667879.9408,1450289.766,939,0.644579947,355.1481934,287.0762634,90649.39063,0.000191458,158.2389526,-1.13114e-05,37.72828674,-0.054575365,-0.642265379,0.261760652,1593,759
2526A,监测站,广元,105.8624,32.4285,20170601,25.26044568,3392,5186,943530.1399,342052.0258,536,0.323060572,305.9998169,288.0357056,93082.72656,0.001399379,130.115387,-7.5737e-06,72.10784912,-0.261374444,-0.189872399,0.642406404,4924,1158
1961A,环境监测站,章丘,117.541,36.71,20170601,54.36,2706,7055,1827404.856,1016578.603,77,1.092469335,198.5237274,285.657959,100077.5234,0.001075418,183.4550934,-8.91527e-06,59.02105713,-0.347064942,1.035874128,0.781022251,2465,764
1650A,环保局,潍坊,119.1425,36.7008,20170601,47.30812325,2708,7311,1954976.224,1046319.314,30,0.849948883,200.3027039,285.9971313,101320.0703,0.000794282,243.0031586,-1.1674e-05,58.43498993,-0.294906765,0.797146857,0.727613628,2469,490
1394A,江北云山西路子站,惠州,114.4103,23.1142,20170601,28.22727273,4882,6554,1893832.965,-619716.9778,19,0.612820506,275.219635,294.5081787,100671.8438,0.003013732,207.2019348,-1.54969e-05,77.6918335,-0.610282063,-0.055720687,0.50130558,2800,332
1421A,茶园,重庆,106.634,29.4892,20170601,39.38022284,3862,5309,1051652.871,1675.519135,289,0.6522035,301.2843018,291.574707,97276.52344,0.001434643,126.1045761,-1.00443e-05,73.58778381,-0.557394862,-0.338644952,0.94690001,3081,355
1157A,浦口,南京,118.626,32.0878,20170601,38.83383686,3446,7228,2046347.497,496252.9203,38,1.059375405,266.2998962,288.1353455,101181.7188,0.002397407,239.8341217,-1.86948e-05,68.09899139,-1.057164073,0.068412669,0.776954234,3913,138
1453A,东风东路,昆明,102.722,25.0405,20170601,33.50415512,4574,4684,740018.9827,-554785.3846,1899,1.326483846,1.658877015,288.2658997,80642.44531,0.00307915,358.1446838,-2.54506e-05,71.05016327,0.038398266,1.325927973,0.289167106,2120,381
1346A,市五中,广州,113.261,23.105,20170601,35.15502793,4883,6370,1783229.312,-642265.1455,12,0.786271274,266.4555664,295.1201172,101258.9297,0.003122867,243.8480835,-2.38846e-05,72.57878113,-0.784765124,0.048644256,0.555120885,1915,292
2513A,市中心血站,百色,106.6527,23.8844,20170601,41.93296089,4759,5312,1131138.35,-651103.2992,130,1.06463325,252.0052185,293.5493469,97678.6875,0.002787164,216.7257538,-9.95995e-06,80.80246735,-1.012544155,0.328935176,0.550092876,3188,1145
2688A,地区监测站,哈密地区,93.5128,42.8172,20170601,29.67156863,1729,3210,-110357.8242,1551468.552,754,1.335805416,166.1001587,287.5172119,92337.63281,5.72949e-05,214.7267303,-3.04096e-06,27.20458221,0.321005642,-1.296661735,0.250863791,2388,1302
1160A,上方山,苏州,120.561,31.2472,20170601,40.37883008,3581,7538,2236141.578,441066.2672,46,1.652379394,269.1838684,289.5220032,101562.1641,0.001781626,346.0613708,-6.66594e-05,71.97569275,-1.652210712,0.023611957,0.720286489,4355,141
2195A,附中,巴彦淖尔,107.4211,40.7608,20170601,25.21610169,2058,5435,950998.4104,1359328.547,1040,0.293677479,52.34536362,282.9934082,89954.98438,0.00024931,198.2429352,-6.39955e-06,33.65159988,0.23250179,0.179413959,0.380846113,1425,858
1883A,市委,宜宾,104.6225,28.76611,20170601,47.41504178,3978,4988,878842.8558,-103259.58,301,0.555002809,131.8848724,291.6523438,96722.92188,0.001210027,149.8258362,-1.32929e-05,72.04242706,0.413217962,-0.37051183,1.00313437,3274,691
2309A,朝阳厂,六安,116.5068,31.7797,20170601,41.27668539,3495,6889,1873887.536,418081.2793,42,0.943426192,249.2676849,288.4832153,101150.4375,0.001974092,179.9130554,-1.27093e-05,68.33091736,-0.882322252,0.334006667,0.781720579,2305,965
1158A,奥体中心,南京,118.737,32.0092,20170601,46.43521127,3459,7246,2058024.869,489435.964,8,1.132401824,264.6637268,288.2364197,101423.7813,0.002364973,240.427475,-2.06769e-05,68.27670288,-1.127489448,0.105363622,0.783305407,2719,139
2614A,大理市环境监测站,大理州,100.1542,25.7054,20170601,21.56703911,4467,4273,490153.9184,-493426.8257,2018,0.919150114,31.97635269,286.9704895,76959.82813,0.002134944,280.7499695,-1.82624e-05,65.33032227,0.486740649,0.779692531,0.2253277,5372,1234
2453A,市立交桥水厂,随州,113.3983,31.7308,20170601,48.91364903,3503,6392,1607578.223,357279.6377,87,0.765293658,274.4717712,288.379364,100175.9844,0.001838981,210.3170013,-1.43328e-05,71.00125122,-0.762966931,-0.059631199,0.804376483,3482,1089
1268A,莲都小学,丽水,119.93,28.4586,20170601,27.13091922,4027,7437,2265290.369,106233.8849,56,0.530605733,262.1140137,290.0856323,98621.6875,0.002333659,223.0967102,-7.89922e-06,76.66146851,-0.525584757,0.072822481,0.590718508,3156,224
2227A,环保局,辽源,125.1358,42.8947,20170601,33.01549296,1717,8270,2198555.969,1899935.845,266,1.222893,41.14221573,277.7783813,97898.50781,0.001161611,275.5865479,-9.18489e-06,60.2246933,0.804558814,0.920951903,0.479208648,2510,888
1482A,四陆医院,西宁,101.834,36.5819,20170601,64.51694915,2727,4541,559552.2452,809986.2106,2233,0.903442025,239.3544922,279.340332,74867.73438,0.000858076,240.4103241,-4.8393e-06,48.3513298,-0.777251005,0.460530549,0.217406556,2408,409
1387A,东城主山,东莞,113.7819444,23.05361111,20170601,37.732493,4892,6453,1834616.037,-638504.8179,21,0.791039944,256.5083008,295.0609131,101043.8672,0.00310294,240.8421021,-2.55858e-05,73.76796722,-0.769202948,0.184583411,0.543184817,2288,325
1354A,麓湖,广州,113.281,23.1569,20170601,35.75487465,4875,6373,1784050.705,-636009.7075,42,0.777210414,268.8037109,295.0168762,101114.3594,0.003184943,239.5456848,-2.28666e-05,72.6390152,-0.777040243,0.016261788,0.557862937,3589,299
2528A,市监测站,遂宁,105.68,30.6133,20170601,41.39944134,3682,5157,951275.4772,124722.5944,346,1.066163421,305.3616943,290.9446411,97196.02344,0.001224935,160.1657715,-1.13824e-05,73.5326004,-0.869512081,-0.616970897,0.907170057,4989,1160
2196A,市环保大楼,巴彦淖尔,107.3715,40.7378,20170601,27.96590909,2062,5427,947573.7867,1356062.368,1040,0.285980821,54.19656372,282.9250183,89846.64063,0.000251976,195.9321289,-6.2974e-06,33.7673378,0.231934026,0.167307049,0.385956138,2749,859
1775A,江北,吉林,126.5786,43.8947,20170601,28.36768802,1557,8501,2261564.378,2049176.139,190,1.054775834,24.77671051,276.2477112,98243.07813,0.001298738,222.9978027,-1.03935e-05,66.21914673,0.442026615,0.95768714,0.46543923,1182,596
2693A,博乐市西郊区,博州,82.0485,44.9079,20170601,20.61699164,1395,1376,-924659.7667,1867798.154,525,0.507968545,146.4760742,283.2757568,94296.21875,0.00064731,181.5914612,-1.23561e-05,55.07424164,0.280575454,-0.423449486,0.223066106,2439,1307
2178A,地区技校,运城,110.9678,35.0308,20170601,72.14185393,2975,6003,1333068.274,711438.7731,362,1.150477529,248.6179047,287.1377869,96518.46875,0.000945231,162.3888092,-1.19863e-05,58.51220322,-1.071275115,0.419485599,0.61713022,3126,843
2884A,酒钢宾馆,嘉峪关,98.26722222,39.79777778,20170601,28.45014245,2212,3971,254677.8959,1185827.251,1661,0.955782592,22.65673256,282.5832214,82448.83594,0.000198261,212.5974121,-5.90146e-06,36.83179092,0.36816597,0.882028401,0.230003744,1354,1350
1666A,市环保局,东营,118.6672,37.4314,20170601,46.0,2591,7235,1896097.456,1123039.327,3,1.088632822,225.6043396,285.9559326,101712.8984,0.000692601,246.7866974,-3.30833e-05,54.03356934,-0.777838171,0.76163584,0.762271285,2687,503
2291A,环科院,安庆,117.0549,30.5103,20170601,46.05865922,3698,6977,1954563.733,280990.3364,14,1.283691168,319.668457,289.7104187,101193.3047,0.002596543,246.7310181,-2.89802e-05,70.4782486,-0.830887258,-0.978513837,0.719925284,2922,948
1004A,天坛,北京,116.434,39.8745,20170601,52.26638177,2200,6877,1655828.045,1372270.098,45,0.376301795,52.71779251,284.6362,100936.8047,0.001010466,138.7939606,-7.13398e-06,45.38791275,0.299402714,0.227949664,0.869679332,2420,3
1848A,城陵矶,岳阳,113.1493,29.4251,20170601,49.36543909,3872,6352,1636503.272,83309.86833,37,1.007611513,309.510376,290.5125732,101102.1563,0.002437706,254.5217285,-3.35397e-05,71.39170837,-0.777424514,-0.641008675,0.797427177,3064,664
1621A,河东保险公司,临沂,118.4023,35.0896,20170601,47.18435754,2966,7192,1942186.841,842367.2284,66,0.701261699,242.7005157,286.369873,100884.3359,0.001143498,209.2429352,-1.21448e-05,63.32729721,-0.6231457,0.321647912,0.751848996,2454,467
1383A,北街,江门,113.104,22.6069,20170601,37.28011204,4963,6345,1778601.174,-701598.0687,8,0.587068558,255.4230499,295.0271301,101057.6484,0.003360467,254.9163208,-2.3507e-05,75.69476318,-0.568165421,0.147775501,0.53491056,3303,321
1006A,官园,北京,116.361,39.9425,20170601,53.87780899,2189,6866,1648488.68,1379142.177,55,0.415028334,89.74723053,284.4081421,100729.1953,0.000993201,126.2128677,-6.42526e-06,46.70851517,0.415024221,0.001850144,0.868779421,2062,5
2206A,环保局新楼,阿拉善盟,105.724,38.8516,20170601,29.55477528,2364,5164,846984.5609,1112545.109,1666,0.346425951,254.4539948,282.5476074,84422.32813,0.000402444,265.7690125,-5.9628e-06,37.64739227,-0.333748609,0.092859104,0.337020218,1813,867
1850A,云溪区,岳阳,113.2621,29.4758,20170601,48.03179191,3864,6370,1645445.987,91104.79279,49,0.971163571,304.8240356,290.3257446,100698.6719,0.002459551,251.1899109,-3.49791e-05,71.96575928,-0.797273338,-0.554539263,0.799928129,4305,666
1051A,游泳馆,保定,115.493,38.8632,20170601,57.32777778,2362,6727,1609736.565,1236167.122,21,0.45382151,47.74733353,285.6299133,101191.0781,0.000989744,128.864624,-8.07344e-06,46.71962357,0.335905194,0.305158406,0.8721416,1915,39
1288A,鼓浪屿,厦门,118.0636111,24.44583333,20170601,28.7359736,4669,7138,2208356.455,-392712.3158,0,1.776781678,308.0550537,293.8876038,100821.875,0.002047232,362.2870789,-6.81531e-05,79.16016388,-1.399144173,-1.095147967,0.379904926,1665,242
1155A,瑞金路,南京,118.803,32.0314,20170601,47.42318436,3455,7256,2062997.616,493399.3767,12,1.134877086,264.4506531,288.184967,101407.2031,0.002369686,241.9085846,-2.03041e-05,68.49415588,-1.129553437,0.109795034,0.780192792,2259,136
2461A,真空机电公司,衡阳,112.5664,26.9056,20170601,43.28072626,4275,6259,1637400.92,-218910.4282,70,0.989563704,344.5756226,291.9215698,100656.25,0.002402707,261.8601685,-1.67903e-05,71.24905396,-0.263271928,-0.953899503,0.745803177,2573,1097
1907A,南充炼油厂,南充,106.1031,30.8217,20170601,47.4255618,3649,5224,986003.8426,153573.1651,300,0.888030589,308.4597168,290.8873291,97559.91406,0.001398045,150.5676727,-1.21491e-05,75.05997467,-0.695405066,-0.552277148,0.876248121,2900,712
2295A,延安路89号,黄山,118.3057,29.7128,20170601,26.5280112,3826,7177,2085664.706,214394.0758,139,0.595979512,282.5294189,289.5133667,99672.16406,0.003283436,178.2717133,-8.83938e-06,76.65644073,-0.581792891,-0.129261702,0.614688456,3897,952
2349A,市政府车库,萍乡,113.8447,27.6231,20170601,47.67086835,4160,6463,1739052.819,-113993.0059,109,0.584183812,272.816925,291.0622253,99498.95313,0.003151616,145.7396545,-9.52422e-06,76.30267334,-0.583479285,-0.02868185,0.715139687,3997,999
2667A,环保局,临夏州,103.2139,35.6039,20170601,35.40756303,2883,4762,682179.6674,700656.2081,1894,0.572397292,24.49534416,279.8554688,78281.21875,0.001188712,151.5879822,-7.47118e-06,56.36581802,0.237320423,0.520881653,0.281044781,2991,1282
2280A,八公山区政府,淮南,116.8306,32.6319,20170601,54.37900875,3359,6941,1879152.294,523839.07,50,1.077997923,256.0991821,288.4120483,101297.5,0.002176847,220.4829407,-2.4011e-05,65.95225525,-1.046416521,0.259021372,0.802841544,3855,937
1894A,小市上码头,泸州,105.4436,28.9026,20170601,45.04634831,3956,5119,951850.5145,-79540.99998,250,0.456011117,336.5304565,292.0223694,97839.39844,0.001261711,147.2907257,-1.27689e-05,73.49526978,-0.181645274,-0.418271601,1.058086872,2653,701
2500A,防城镇政府,防城港,108.3511,21.7631,20170601,31.28212291,5098,5584,1328200.021,-872581.6961,15,0.369634122,354.6724243,295.082428,100808.6563,0.002766602,281.1942749,-4.10084e-05,79.26787567,-0.034353744,-0.368034244,0.501352429,4164,1134
1447A,太慈桥,贵阳,106.6867,26.5495,20170601,26.4756447,4332,5318,1097545.325,-342114.4817,1096,1.251607895,235.7802124,287.4953918,88355.92188,0.002077359,337.0706482,-1.11982e-05,83.03549957,-1.034917235,0.703895271,0.599681735,2841,376
1376A,高明孔堂,佛山,112.844,22.8693,20170601,39.67787115,4921,6303,1747876.67,-676510.9123,31,0.565837502,265.9544678,294.8993225,100774.8594,0.003029548,241.1379242,-2.09283e-05,74.0732193,-0.564425886,0.039944187,0.568857491,5768,314
1593A,康泽苑,鄂尔多斯,109.7736,39.5986,20170601,19.47191011,2244,5812,1151108.526,1244003.007,1301,0.902215958,67.47734833,280.8291626,86628.10156,0.000764764,247.8950043,-9.23819e-06,46.57600403,0.833390296,0.345621586,0.394631475,2924,442
1381A,紫马岭,中山,113.4075,22.5111,20170601,29.46927374,4978,6393,1810127.024,-706903.1147,13,0.829056203,252.4943237,295.2363892,100838.6016,0.002912565,293.5805359,-3.66533e-05,76.64382172,-0.790650904,0.249409929,0.524514079,3852,319
1910A,市环境监测站,南充,106.1087,30.8388,20170601,42.04634831,3646,5225,986269.0717,155654.7064,318,0.888748765,308.0556641,290.9064636,97573.95313,0.001402697,150.4662628,-1.22618e-05,75.07325745,-0.699847579,-0.547802567,0.862408996,3119,715
1897A,大塘山,自贡,104.7547,29.3628,20170601,74.37711864,3882,5009,883872.4251,-31738.68044,331,0.777469993,179.4752045,291.7219543,97437.15625,0.00105818,150.0917053,-1.27371e-05,72.93656921,0.007193131,-0.777436733,1.016264915,4591,704
1514A,科大,湘潭,112.9074,27.9119,20170601,47.09887006,4114,6313,1647371.706,-96699.16835,58,0.945307732,355.2565918,291.0732422,100739.2891,0.002657789,240.9077301,-1.72856e-05,72.48426819,-0.078255348,-0.942063034,0.785585403,4455,424
2180A,机引,忻州,112.7356,38.4186,20170601,59.60806916,2433,6286,1405400.437,1140755.144,789,0.404523879,38.41837692,282.6290588,91183.39844,0.001036057,105.0215073,-2.69457e-06,52.31288528,0.25136447,0.316947103,0.49778372,1960,845
2471A,赫山环保分局,益阳,112.3744,28.5819,20170601,32.59357542,4007,6228,1584942.316,-27621.34266,40,0.447520584,333.0464478,290.7068787,100821.4297,0.002455799,255.5422668,-2.36861e-05,71.94178772,-0.202878162,-0.398892373,0.842388034,2916,1107
2516A,东仁乐园,河池,108.2134,24.7121,20170601,28.12883436,4626,5562,1268888.288,-536673.8655,312,0.545595348,277.0908508,292.4475708,97327.41406,0.003284543,215.4864807,-1.13094e-05,78.54876709,-0.541425824,-0.06732294,0.564175189,6116,1148
2387A,迎宾馆,鹤壁,114.2878,35.7306,20170601,52.82686981,2863,6534,1590487.025,844054.2697,88,0.512310326,56.69152832,287.65271,100443.2109,0.000883302,200.9434814,-1.02015e-05,56.86006927,0.428142905,0.281345874,0.809254885,3179,1037
1271A,三里街,合肥,117.307,31.8766,20170601,51.31754875,3480,7017,1939820.642,444912.7486,20,1.055467486,259.3335266,288.8564148,101454.2734,0.002232966,246.9914551,-2.08359e-05,67.71926117,-1.037222385,0.195400387,0.778991818,2257,227
2179A,空港新区,运城,111.0414,35.1147,20170601,57.46648045,2962,6015,1337511.652,722435.4393,378,1.193482399,240.7014465,287.4403992,97901.0,0.000992634,156.6450653,-1.03128e-05,58.97314453,-1.040795684,0.584075809,0.617802501,3148,844
2845A,德盛苑,长治,113.1569,36.1912,20170601,65.63509749,2789,6353,1488088.014,881070.9673,1012,0.909381986,187.7304993,282.0431824,89917.63281,0.000921323,180.1275787,-5.60067e-06,61.40594864,-0.12232089,0.901117742,0.578655779,3159,1327
2251A,苗圃,双鸭山,131.1572,46.5888,20170601,31.57807808,1126,9233,2456745.18,2470001.516,166,1.528999805,63.39850616,274.3969421,98117.24219,0.001057673,293.0010376,-7.44515e-06,67.88625336,1.367121458,0.684703946,0.365666866,3368,912
1794A,监测站,芜湖,118.3528,31.3508,20170601,46.87988827,3564,7184,2043879.192,404959.6551,8,1.18000567,275.0214233,289.0262146,101545.1563,0.002046067,228.2472839,-2.3132e-05,68.5449295,-1.175481796,-0.103226781,0.757713377,2066,614
1080A,市环保局,邢台,114.4854,37.062,20170601,68.37955182,2650,6566,1574792.451,1005398.511,76,0.769093096,55.5141449,286.6465454,100286.4063,0.000811564,164.4893494,-8.83304e-06,52.05469131,0.633924842,0.435480744,0.792172372,2071,66
2277A,潘集区政府,淮南,116.8028,32.7639,20170601,56.22284123,3338,6936,1873314.827,538750.1656,23,1.061765194,255.7071533,288.4064941,101381.6016,0.002212979,218.6503754,-2.04683e-05,65.74108887,-1.028889656,0.26216647,0.798549533,4314,934
2248A,双合村,双鸭山,131.1638,46.6572,20170601,28.1755618,1115,9234,2454156.754,2477988.922,171,1.591771722,64.15701294,274.4983826,98910.52344,0.000981885,287.2829895,-7.6076e-06,66.63980103,1.432558894,0.693910897,0.367050588,2415,909
1247A,城东开发委,绍兴,120.605,29.9919,20170601,42.86938202,3781,7545,2278427.773,297592.9636,9,0.878875136,280.6818542,289.9578552,101016.8203,0.002544374,261.8351746,-1.58214e-05,71.86288452,-0.863654077,-0.162859425,0.65984565,3019,211
2255A,佳纺,佳木斯,130.2719,46.8025,20170601,28.64647887,1092,9091,2390031.597,2472648.711,82,1.240229607,60.56204224,274.4664917,100031.8828,0.000705877,207.1914978,-8.80682e-06,65.10733795,1.080082536,0.609582782,0.368902862,2553,916
1887A,沙坪中学,宜宾,104.6789,28.7989,20170601,54.35955056,3972,4997,883595.7939,-98892.56183,340,0.572529972,139.8998413,291.7781677,96971.79688,0.001170704,153.5704498,-1.3817e-05,72.02098846,0.368812859,-0.437912852,0.996237636,4058,695
1708A,新兴,揭阳,116.3697,23.5353,20170601,30.43258427,4814,6867,2071619.981,-532528.3935,8,0.602673233,262.4718018,294.2104187,100526.625,0.002467811,201.5692596,-1.58238e-05,79.18592834,-0.597475111,0.078984156,0.426376343,1827,536
2406A,气象站,南阳,112.5573,33.027,20170601,60.09610028,3296,6257,1507296.133,496653.6545,128,0.746194363,302.8924561,288.0501404,99963.35156,0.001378033,203.260376,-1.25738e-05,66.75246429,-0.626598716,-0.405191392,0.841064394,2180,1053
1767A,南山,锦州,121.0986,41.0781,20170601,28.91643454,2008,7624,1969871.935,1601063.146,31,0.790780127,53.80680084,282.4335938,100952.2188,0.0006376,339.7416077,-3.11962e-05,52.37919998,0.638170719,0.466981113,0.598131895,2588,589
1100A,新秀街,沈阳,123.439,41.7089,20170601,36.12638889,1907,7998,2119763.498,1723938.092,44,0.84405303,182.6966858,280.7333984,101100.0703,0.001112594,269.436676,-8.63853e-06,50.94733429,-0.039709948,0.84311837,0.575883746,2433,85
2650A,进步巷,天水,105.7281,34.5814,20170601,30.97740113,3047,5164,903709.6996,598041.899,1197,0.893477201,203.2091217,283.4786072,85615.88281,0.001330396,265.8504028,-7.22041e-06,63.82713318,-0.352099001,0.821174622,0.475265712,3997,1266
2249A,南小市,双鸭山,131.1651,46.619,20170601,26.38235294,1121,9234,2455925.625,2473652.797,148,1.56174469,63.78240585,274.4595642,98479.13281,0.001023261,290.5139771,-7.51846e-06,67.30860901,1.401054025,0.689995646,0.37264806,2648,910
2018A,抱龙山庄,瓦房店,121.989,39.625,20170601,30.40555556,2240,7766,2083519.771,1448477.073,121,0.23139587,257.2958679,282.3086548,100666.1953,0.000669331,267.568512,-1.1178e-05,60.92406845,-0.225728974,0.050896782,0.608800173,3248,814
1766A,威宁,本溪,123.8142,41.3472,20170601,30.93201133,1965,8058,2159712.486,1689748.352,161,0.927616775,204.4311829,279.0293884,98795.14844,0.00114235,222.1768951,-7.48937e-06,62.4950676,-0.383651495,0.844561636,0.539563358,5019,588
2929A,红卫路,黄冈,114.8858,30.4519,20170601,45.08988764,3708,6630,1766508.186,233121.0494,28,0.876475871,280.5663757,290.2145386,101210.4297,0.002513931,186.7877655,-2.87935e-05,69.0033493,-0.861621976,-0.160678566,0.769310236,2889,1367
2272A,二水厂,蚌埠,117.3086,32.935,20170601,54.68539326,3310,7017,1911411.977,568505.7049,23,1.081582546,250.7500305,288.1820984,101444.8047,0.002217807,227.4403687,-2.00088e-05,66.17932129,-1.021097541,0.356624097,0.796961486,3390,930
2702A,古江巴格乡院内,和田地区,79.9117,37.1013,20170601,131.0946328,2644,1034,-1221904.543,947507.8567,1391,0.656262577,284.3878174,288.3294678,84944.5625,0.000147042,351.0545959,-1.13484e-05,27.7211132,-0.635688305,-0.163036764,0.25891009,2997,1315
2225A,一商场,四平,124.3711,43.1594,20170601,48.26264045,1675,8147,2134916.69,1914010.982,172,1.228613615,24.84180641,278.601593,99548.76563,0.001135458,290.3252258,-9.39883e-06,56.01652145,0.516143918,1.114938021,0.481749922,2130,886
1326A,汉阳月湖,武汉,114.2511,30.5514,20170601,43.4494382,3692,6528,1708555.233,233510.4901,31,1.118394494,301.5838928,290.1111145,101281.3594,0.002537019,214.9947205,-3.54378e-05,68.53266907,-0.952768087,-0.585695565,0.801629007,2720,273
2612A,景洪市江南,西双版纳州,100.7939,22.0019,20170601,25.28366762,5060,4375,576217.6784,-918539.9801,551,0.537201285,0.952060878,294.5121155,91861.92188,0.003040961,61.1054039,-4.31799e-06,78.18933105,0.008925479,0.537127137,0.303641975,4920,1232
1431A,金泉两河,成都,103.97275,30.72358333,20170601,55.87465181,3664,4884,798474.6861,122594.7246,516,1.094888687,153.6392517,290.1993408,95423.6875,0.001169071,148.2844543,-1.13367e-05,69.5111084,0.486231744,-0.98099947,0.781147718,3140,362
1003A,东四,北京,116.434,39.9522,20170601,54.89859155,2188,6877,1653776.71,1381524.305,48,0.27549094,75.46051788,284.4922485,100830.9688,0.001002024,129.9712982,-6.67928e-06,45.53746414,0.266665608,0.06917157,0.87581104,2609,2
1007A,海淀区万柳,北京,116.315,39.9934,20170601,50.41736695,2181,6858,1643658.083,1384435.679,52,0.532783926,107.7722931,284.2668762,100620.9141,0.000982214,117.6309509,-5.88151e-06,47.84044647,0.507366955,-0.162596047,0.841994762,3138,6
1373A,南海气象局,佛山,113.144,23.0467,20170601,35.05211268,4893,6351,1773170.865,-651000.6642,3,0.805814326,266.5808716,295.2511902,101253.2578,0.002834494,248.1858521,-2.49677e-05,72.13818359,-0.804377794,0.048094299,0.57229799,2413,311
1769A,百股街道,锦州,121.2008,41.1219,20170601,31.9719888,2001,7640,1975992.091,1608279.215,16,0.765205562,49.74586487,282.3079224,101010.5625,0.000665039,342.2581787,-3.15717e-05,52.36695099,0.583981395,0.494474769,0.596599877,2820,590
2603A,市环保局,临沧,100.0869,23.8822,20170601,26.72285714,4759,4262,494741.563,-705699.5666,1488,0.528833449,60.6861496,288.3456726,80643.85156,0.003621748,64.56266022,-2.41799e-06,72.13432312,0.461108744,0.258927703,0.258298099,3913,1224
3026A,市政府,潮州,116.6183,23.65889,20170601,30.49442897,4795,6907,2092209.144,-513293.2884,13,0.746302962,272.5525513,294.3370056,101367.1328,0.002663295,206.6050568,-1.79555e-05,81.06671143,-0.745564044,-0.033201545,0.421838433,1733,1388
1255A,黄岩环保大楼,台州,121.273,28.6459,20170601,28.00724638,3997,7652,2378627.891,159367.0242,129,0.251679748,348.6769104,290.2898254,100781.1563,0.002618861,330.263916,-1.51401e-05,78.63561249,-0.049436584,-0.24677667,0.535940588,4546,215
1905A,西山风景区,南充,106.056,30.8064,20170601,41.3079096,3651,5217,982043.6272,151289.3773,308,0.879426181,308.9922485,290.844635,97502.07813,0.001381001,151.6591034,-1.20811e-05,74.92990112,-0.683553874,-0.553303242,0.87104857,4923,710
1037A,雷达站,唐山,118.144,39.643,20170601,45.89027778,2237,7151,1792159.377,1374761.464,30,0.682202995,194.4754333,284.1112671,101409.3594,0.000739086,182.9657745,-8.82367e-06,51.56108856,-0.170521781,0.660547674,0.796505332,2243,27
2374A,市气象局,宜春,114.3703,27.7914,20170601,50.81476323,4133,6547,1783051.47,-85114.99596,104,0.668355703,269.5732422,291.1007996,100261.7734,0.003764055,163.4533081,-9.94686e-06,77.55700684,-0.668336928,0.005008882,0.689736247,3768,1024
1970A,人民广场子站,莱西,120.515,36.885,20170601,39.55890805,2678,7530,2057941.784,1095973.152,65,0.381221592,210.7970581,284.4913635,100726.5938,0.001085405,267.6190796,-7.60387e-06,64.93920135,-0.19517982,0.327467173,0.650446296,2918,770
1782A,富区环保局,齐齐哈尔,123.6261,47.203,20170601,26.81497175,1028,8028,1939987.251,2372698.985,152,0.808801353,93.36252594,276.7007141,99660.85156,0.00057352,264.4382019,-1.32619e-05,53.23241806,0.807411194,-0.047400083,0.278404564,2257,602
1852A,金凤水库,岳阳,113.2117,29.355,20170601,43.30473373,3883,6362,1643597.387,76179.86234,71,1.034198046,308.8942871,290.4233704,100753.5703,0.002508281,250.443222,-3.21744e-05,71.83750916,-0.804965317,-0.649304628,0.784529328,4938,668
2201A,科右前旗环保局,兴安盟,121.9462,46.0756,20170601,9.045961003,1208,7759,1866523.407,2207459.456,299,1.374847412,104.7194138,276.8456421,97493.125,0.000766129,296.1846313,-6.48687e-06,52.33117676,1.329746127,-0.349257469,0.283757746,3054,862
1951A,长征新村,克拉玛依,84.8861,45.6033,20170601,24.26825843,1284,1830,-714130.5606,1928797.639,382,1.93642354,133.6169434,285.2608643,96302.65625,0.000264259,570.1309814,-9.81697e-06,42.17436981,1.402000308,-1.335713744,0.213667184,1920,754
1304A,机床二厂,济南,116.943,36.6489,20170601,62.66091954,2716,6959,1781385.103,998379.1373,38,1.207132816,213.0199127,286.4356689,100756.4219,0.001068765,193.5187988,-1.2201e-05,55.91096497,-0.657786191,1.01216948,0.819606364,2426,256
1035A,封龙山,石家庄,114.3541,37.9097,20170601,52.41044776,2515,6545,1544172.496,1104256.718,326,1.017769933,56.64455795,285.2039795,98639.57031,0.001074703,128.0363464,-8.60246e-06,55.35539627,0.850102127,0.55962652,0.768948793,4667,25
1398A,城中子站,肇庆,112.471,23.0528,20170601,38.88826816,4892,6243,1707983.708,-662229.4579,10,0.720156848,271.6866455,294.6395264,100205.9688,0.002944014,220.5185242,-1.52215e-05,76.10688782,-0.719845831,-0.02116262,0.558288634,1464,336
1750A,太平,鞍山,123.0485,41.1442,20170601,33.3189415,1997,7936,2110897.322,1649328.24,45,1.050357699,192.3028564,281.1580811,100798.8125,0.001027347,270.3400574,-8.23458e-06,52.62127304,-0.22380285,1.026237607,0.571201563,3024,572
1060A,世纪豪园,张家口,114.9032,40.7688,20170601,29.62188366,2057,6632,1517293.988,1454314.903,732,0.788001418,348.1275024,279.9213257,91569.39063,0.000856444,198.5297852,-3.54484e-06,47.89870453,-0.162186235,-0.771130264,0.502401352,2191,47
1124A,净月潭,长春,125.454,43.7878,20170601,22.37073864,1574,8321,2187664.251,2011264.353,242,1.296965241,44.60767365,277.5579529,98681.42969,0.001147033,263.9197083,-1.01526e-05,60.41678619,0.910770535,0.92337203,0.468828708,3106,106
1414A,缙云山,重庆,106.379,29.8272,20170601,31.79189944,3808,5269,1024070.277,38831.25409,569,0.727498531,314.1569824,291.4524231,97223.65625,0.00149034,129.0305786,-9.87306e-06,73.65727997,-0.521967232,-0.506758571,0.936833382,5508,349
1068A,开发区,廊坊,116.7729,39.5747,20170601,42.60393258,2248,6932,1689617.989,1342357.198,14,0.69102627,0.678993583,285.2820129,101536.25,0.001078529,187.1360474,-9.09951e-06,46.61048889,0.008191353,0.690977752,0.875583827,3295,55
2658A,仓门街子站,酒泉,98.509,39.746,20170601,32.68854749,2221,4009,273742.0588,1180166.037,1467,1.165856719,32.14234161,282.2484741,83745.92969,0.0002078,131.4166107,-6.93406e-06,37.21934891,0.62024796,0.987174928,0.227842391,2087,1274
1252A,清河小学,嘉兴,120.744,30.7946,20170601,41.25,3653,7567,2265767.264,393102.2663,7,1.13258636,273.5099792,289.1840515,101589.5156,0.002120791,297.3394165,-2.49218e-05,72.91191864,-1.13046515,-0.069285005,0.69095844,3200,213
1139A,呼兰师专,哈尔滨,126.6106,45.9819,20170601,34.13841808,1223,8506,2182889.844,2292608.284,123,1.129419446,56.13928223,275.8691101,99987.07031,0.000711028,206.6298523,-7.97826e-06,61.24607849,0.937845528,0.629312396,0.398237228,1854,120
2704A,新政府片区,伊犁哈萨克州,81.2867,43.895,20170601,59.07703081,1557,1254,-995971.8538,1752253.257,611,0.100160152,352.2024536,285.6015015,92694.33594,0.000397781,280.1430359,-1.38764e-05,46.56907654,-0.013597842,-0.09923283,0.217016324,2365,1317
1838A,风景区,三门峡,111.1489,34.7997,20170601,54.08100559,3012,6032,1352615.337,686392.7039,329,1.070873141,240.855072,286.2693481,95937.51563,0.001157618,167.9270477,-1.2907e-05,63.02849579,-0.935274065,0.521566451,0.632011414,2484,654
1087A,坞城,太原,112.57,37.8195,20170601,62.8782235,2529,6259,1405376.252,1066708.03,786,0.319642693,177.1777954,283.1853638,91309.27344,0.000980009,141.3523102,-5.93812e-06,51.98262024,0.015767714,-0.319253564,0.511066437,1775,72
1885A,市政府,宜宾,104.6417,28.76389,20170601,46.44150418,3978,4991,880616.5383,-103349.0838,301,0.551851332,133.8452301,291.6606445,96746.3125,0.001200382,150.9474335,-1.34452e-05,72.05448914,0.398029149,-0.382246912,1.003585696,2720,693
